{
  "simple": [
    {
      "title": "万科公园传奇",
      "price": "7100",
      "address": "云岩春雷路小海螺对面",
      "location": {
        "lng": 106.7214714697712,
        "lat": 26.61945284899785
      }
    },
    {
      "title": "中铁逸都国际",
      "price": "8300",
      "address": "观山湖云潭南路（贵州广播电视大学正对面）",
      "location": {
        "lng": 106.61358822722951,
        "lat": 26.61138321170221
      }
    },
    {
      "title": "保利凤凰湾",
      "price": "9500",
      "address": "南明花溪大道北段（原贵阳电厂）",
      "location": {
        "lng": 106.69676847608565,
        "lat": 26.566858155793927
      }
    },
    {
      "title": "碧桂园贵安1号",
      "price": "8000",
      "address": "贵安新区京安大道与百马大道交汇处",
      "location": {
        "lng": 106.50236887385547,
        "lat": 26.459545566733336
      }
    },
    {
      "title": "贵安云谷·智都汇",
      "price": "4588",
      "address": "贵安新区黔中路电子信息产业园",
      "location": {
        "lng": 115.05455462279785,
        "lat": 27.132246100851127
      }
    },
    {
      "title": "美的·云熙府",
      "price": "6800",
      "address": "云岩改茶大道",
      "location": {
        "lng": 106.66958379754823,
        "lat": 26.5819447143492
      }
    },
    {
      "title": "鸿基·君临天下 三期",
      "price": "13500",
      "address": "云岩北京路与威清路围合处（万科公园5号旁）",
      "location": {
        "lng": 106.70564946032064,
        "lat": 26.594069552833513
      }
    },
    {
      "title": "中央国际",
      "price": "6500",
      "address": "云岩百花大道240号（华通汽车城对面）",
      "location": {
        "lng": 106.63692359928504,
        "lat": 26.596244693855404
      }
    },
    {
      "title": "中天未来方舟",
      "price": "7500",
      "address": "云岩渔安安井片区北京东路（602、606终点站）",
      "location": {
        "lng": 106.7575818061749,
        "lat": 26.60266791887955
      }
    },
    {
      "title": "熙山郡",
      "price": "6999",
      "address": "云岩中坝路88号",
      "location": {
        "lng": 106.67661476364304,
        "lat": 26.60269949877965
      }
    },
    {
      "title": "恒大金阳新世界",
      "price": "8900",
      "address": "观山湖金朱路1号金阳新世界城市之心",
      "location": {
        "lng": 106.62087977215329,
        "lat": 26.660197663613356
      }
    },
    {
      "title": "观府壹号",
      "price": "8000",
      "address": "观山湖金阳北路378号（金阳北路与金朱东路交叉路口）",
      "location": {
        "lng": 106.63484198736816,
        "lat": 26.634777064181353
      }
    },
    {
      "title": "华润国际社区",
      "price": "7400",
      "address": "观山湖金阳大道（金阳客车站）旁",
      "location": {
        "lng": 106.6288876276871,
        "lat": 26.626053342730454
      }
    },
    {
      "title": "花果园",
      "price": "5500",
      "address": "南明花果园大街1号（湘雅村站台往花溪方向走100米）",
      "location": {
        "lng": 106.69568092455425,
        "lat": 26.574196172937505
      }
    },
    {
      "title": "亨特翰林溪苑",
      "price": "5500",
      "address": "花溪溪北社区竹林村花坡（民大旁）",
      "location": {
        "lng": 106.6746803500269,
        "lat": 26.482757743265303
      }
    },
    {
      "title": "广大城",
      "price": "4300",
      "address": "观山湖金清大道中段",
      "location": {
        "lng": 121.52389579194366,
        "lat": 28.512483552003776
      }
    },
    {
      "title": "花溪碧桂园",
      "price": "5700",
      "address": "花溪孟溪路花溪碧桂园（孟关汽贸城旁）",
      "location": {
        "lng": 106.75160553143263,
        "lat": 26.40477055843999
      }
    },
    {
      "title": "万科城",
      "price": "7772",
      "address": "观山湖云潭南路延伸段",
      "location": {
        "lng": 106.61258031317645,
        "lat": 26.619507510474225
      }
    },
    {
      "title": "中建华府",
      "price": "6800",
      "address": "云岩区政府旁 （大营坡轻轨站口）",
      "location": {
        "lng": 106.73089584799203,
        "lat": 26.610486641984544
      }
    },
    {
      "title": "美的林城时代",
      "price": "8900",
      "address": "观山湖长岭北路8号（贵阳国际会议展览中心东侧）",
      "location": {
        "lng": 106.65820009014631,
        "lat": 26.643297897679698
      }
    },
    {
      "title": "美的国宾府",
      "price": "7300",
      "address": "花溪甲秀南路与明珠大道交汇处",
      "location": {
        "lng": 106.66986850919137,
        "lat": 26.41617904725038
      }
    },
    {
      "title": "中国铁建国际城",
      "price": "6500",
      "address": "南明太慈桥车水路76号",
      "location": {
        "lng": 106.69189273824027,
        "lat": 26.55324986067253
      }
    },
    {
      "title": "贵阳恒大帝景",
      "price": "7800",
      "address": "云岩甲秀北路8号圣泉流云花园对面",
      "location": {
        "lng": 106.67650159797317,
        "lat": 26.62118388212999
      }
    },
    {
      "title": "中环国际",
      "price": "3500",
      "address": "清镇云岭中路",
      "location": {
        "lng": 106.47302349927898,
        "lat": 26.563542331216492
      }
    },
    {
      "title": "中铁阅山湖",
      "price": "21000",
      "address": "观山湖云谭北路旁（观山西路与云潭北路交汇处）",
      "location": {
        "lng": 106.61520983935253,
        "lat": 26.639353398146387
      }
    },
    {
      "title": "恒大中央公园",
      "price": "7800",
      "address": "观山湖金朱东路399号",
      "location": {
        "lng": 106.63047116063956,
        "lat": 26.659229476536478
      }
    },
    {
      "title": "北大资源梦想城",
      "price": "8000",
      "address": "观山湖甲秀北路与观山路夹角处(火车北站正对面）",
      "location": {
        "lng": 106.67650159797317,
        "lat": 26.62118388212999
      }
    },
    {
      "title": "贵安山语城",
      "price": "4700",
      "address": "贵安新区百马大道贵安管委会前行100米",
      "location": {
        "lng": 115.8867310100507,
        "lat": 38.8782552166
      }
    },
    {
      "title": "贵安第一城",
      "price": "3200",
      "address": "贵安新区贵安新区核心区夏云",
      "location": {
        "lng": 115.8867310100507,
        "lat": 38.8782552166
      }
    },
    {
      "title": "中航城",
      "price": "价格待定",
      "address": "观山湖北京西路与金阳大道交汇（世纪金源酒店西侧）",
      "location": {
        "lng": 106.65049609723081,
        "lat": 26.586356486792035
      }
    },
    {
      "title": "恒大中央广场",
      "price": "7900",
      "address": "观山湖合肥路26号（北京西路与合肥路交汇处）",
      "location": {
        "lng": 121.48660151777523,
        "lat": 31.222010716654182
      }
    },
    {
      "title": "俊发城",
      "price": "7500",
      "address": "白云北二环黑石头大桥旁（长坡岭国家森林公园南侧）",
      "location": {
        "lng": 106.68700682636631,
        "lat": 26.656492951870412
      }
    },
    {
      "title": "群升大智汇",
      "price": "4700",
      "address": "花溪贵安新区花溪大学城思雅路",
      "location": {
        "lng": 106.62649314314763,
        "lat": 26.387176166175497
      }
    },
    {
      "title": "保利溪湖",
      "price": "6300",
      "address": "花溪新区大道洛平水库旁（甲秀南路与明珠大道交汇处）",
      "location": {
        "lng": 106.66986850919137,
        "lat": 26.41617904725038
      }
    },
    {
      "title": "中铁城锦溪",
      "price": "5000",
      "address": "花溪甲秀南路贵大新校区对面（溪北路与花溪大道交汇）",
      "location": {
        "lng": 106.68354646371246,
        "lat": 26.447831032323126
      }
    },
    {
      "title": "万科·翡翠传奇",
      "price": "9200",
      "address": "云岩新添大道南段省二医对面万科翡翠传奇售楼部",
      "location": {
        "lng": 106.73451510472103,
        "lat": 26.61293685712167
      }
    },
    {
      "title": "贵阳恒大城",
      "price": "6188",
      "address": "白云云环路388号(曹关收费站旁)",
      "location": {
        "lng": 106.62496611540833,
        "lat": 26.699342856208105
      }
    },
    {
      "title": "国际温泉小镇",
      "price": "2488",
      "address": "清镇星坡路与塔峰路交汇处（原清纺厂）",
      "location": {
        "lng": 106.46389072180625,
        "lat": 26.557259892468206
      }
    },
    {
      "title": "国电金海域",
      "price": "5400",
      "address": "观山湖长岭南路58号（绿地环保旁）",
      "location": {
        "lng": 106.65207918165244,
        "lat": 26.631813263859872
      }
    },
    {
      "title": "碧桂园花溪1号",
      "price": "5900",
      "address": "花溪甲秀南路与明珠大道交汇处向南约800米",
      "location": {
        "lng": 106.66986850919137,
        "lat": 26.41617904725038
      }
    },
    {
      "title": "碧桂园贵阳1号",
      "price": "6200",
      "address": "花溪甲秀南路金竹立交南",
      "location": {
        "lng": 106.6607614834427,
        "lat": 26.498867376152248
      }
    },
    {
      "title": "远大美域",
      "price": "9500",
      "address": "观山湖长岭南路25号（长岭南路和观山东路交汇处）",
      "location": {
        "lng": 106.65230781063153,
        "lat": 26.634217434297824
      }
    },
    {
      "title": "万科云岩大都会",
      "price": "6500",
      "address": "云岩中坝路16号",
      "location": {
        "lng": 106.67674832929842,
        "lat": 26.591937948521636
      }
    },
    {
      "title": "首开紫郡",
      "price": "9500",
      "address": "南明森林公园旁（市委党校对面）",
      "location": {
        "lng": 106.77281557373702,
        "lat": 26.559191741429153
      }
    },
    {
      "title": "乐湾国际城",
      "price": "10000",
      "address": "乌当北京东路直抵（全林驾校旁)",
      "location": {
        "lng": 106.75887333324349,
        "lat": 26.62437277859979
      }
    },
    {
      "title": "万科悦城",
      "price": "价格待定",
      "address": "观山湖金阳南路南段（西南五金市场站旁）",
      "location": {
        "lng": 112.4919255750032,
        "lat": 37.86184849716763
      }
    },
    {
      "title": "中天会展城",
      "price": "10150",
      "address": "观山湖长岭北路1号（观山湖公园以东）",
      "location": {
        "lng": 106.65542408986705,
        "lat": 26.64556178947715
      }
    },
    {
      "title": "碧桂园中铁天麓1号",
      "price": "11000",
      "address": "双龙临空经济区(中铁大道与贵龙大道交界处)",
      "location": {
        "lng": 106.40322482161727,
        "lat": 29.804489441141108
      }
    },
    {
      "title": "云城尚品",
      "price": "4800",
      "address": "白云白金大道中段",
      "location": {
        "lng": 106.66365298514948,
        "lat": 26.703758054734298
      }
    },
    {
      "title": "优品城邦",
      "price": "4200",
      "address": "白云云环路中段",
      "location": {
        "lng": 113.33626959885972,
        "lat": 23.136101659191198
      }
    },
    {
      "title": "檀溪谷",
      "price": "6280",
      "address": "云岩苹果园路43号（车管所对面）",
      "location": {
        "lng": 106.67022808022588,
        "lat": 26.585572205415637
      }
    },
    {
      "title": "宇虹万花城",
      "price": "5888",
      "address": "观山湖兴筑西路及宾阳大道交汇处",
      "location": {
        "lng": 106.601544447634,
        "lat": 26.626712574532657
      }
    },
    {
      "title": "金龙星岛国际",
      "price": "9000",
      "address": "云岩北京西路鸭江寨",
      "location": {
        "lng": 106.66752412315019,
        "lat": 26.598963172540795
      }
    },
    {
      "title": "绿地伊顿公馆",
      "price": "4500",
      "address": "白云马掌坡路（原贵阳市水泥厂）",
      "location": {
        "lng": 106.61800289935172,
        "lat": 26.704991990341618
      }
    },
    {
      "title": "天誉城",
      "price": "6500",
      "address": "云岩省政府北门上行800米（观山东路168号）",
      "location": {
        "lng": 106.70726545084777,
        "lat": 26.62438358704686
      }
    },
    {
      "title": "滨湖俊园",
      "price": "5800",
      "address": "观山湖科技产业园湖滨路与都匀路交叉口处（阳关大道和白云大道交汇处）",
      "location": {
        "lng": 106.65786597439504,
        "lat": 26.622728698039253
      }
    },
    {
      "title": "泉天下泉城首府",
      "price": "5300",
      "address": "乌当新添大道197号",
      "location": {
        "lng": 106.78144927782114,
        "lat": 26.64380472336567
      }
    },
    {
      "title": "腾龙湾",
      "price": "5600",
      "address": "小河花溪大道中曹司站（十里河滩旁）",
      "location": {
        "lng": 106.68398350551243,
        "lat": 26.52910820651669
      }
    },
    {
      "title": "亨特萃山国际社区",
      "price": "7000",
      "address": "云岩三桥中坝路（甲秀南路与北京西路交汇处）",
      "location": {
        "lng": 106.67549450227644,
        "lat": 26.588471826426197
      }
    },
    {
      "title": "天域南湖",
      "price": "6200",
      "address": "白云南湖新区南湖路261号",
      "location": {
        "lng": 106.624627750672,
        "lat": 26.682596364731197
      }
    },
    {
      "title": "银河世纪",
      "price": "3600",
      "address": "清镇金清线凉水井站",
      "location": {
        "lng": 106.4814117288063,
        "lat": 26.538172140924015
      }
    },
    {
      "title": "恒大雅苑",
      "price": "7200",
      "address": "乌当新添大道北段",
      "location": {
        "lng": 106.78312900941233,
        "lat": 26.642458513705023
      }
    },
    {
      "title": "大上海商贸城",
      "price": "4800",
      "address": "云岩新添大道南段302号",
      "location": {
        "lng": 106.73428086419328,
        "lat": 26.612012946755264
      }
    },
    {
      "title": "中天世纪新城",
      "price": "20000",
      "address": "南明水口寺红岩路1号(省化工研究院对面）",
      "location": {
        "lng": 106.74606053226725,
        "lat": 26.577437541402254
      }
    },
    {
      "title": "绿地新都会",
      "price": "5500",
      "address": "白云金苏大道绿地新都会（金融中心前行5公里）",
      "location": {
        "lng": 106.65688543440578,
        "lat": 26.66617009910452
      }
    },
    {
      "title": "恒大翡翠华庭",
      "price": "7800",
      "address": "小河珠江路70号（实验中学对面）",
      "location": {
        "lng": 106.70098005839995,
        "lat": 26.49694476994974
      }
    },
    {
      "title": "黔灵半山",
      "price": "9000",
      "address": "云岩贵阳市市北路关刀岩123号",
      "location": {
        "lng": 106.70962336177672,
        "lat": 26.610937369516513
      }
    },
    {
      "title": "保利公园",
      "price": "10000",
      "address": "乌当航天大道中段（北衙路与航天大道交汇处）",
      "location": {
        "lng": 106.77479881042096,
        "lat": 26.647611753929553
      }
    },
    {
      "title": "贵大学府里",
      "price": "4500",
      "address": "花溪花石路194号",
      "location": {
        "lng": 106.66904251278369,
        "lat": 26.442267966926973
      }
    },
    {
      "title": "保利春天大道",
      "price": "5400",
      "address": "乌当乌当区水东路（过贵御温泉）",
      "location": {
        "lng": 106.77731527586558,
        "lat": 26.622101143279
      }
    },
    {
      "title": "保利紫薇郡",
      "price": "4200",
      "address": "乌当航天大道中段（北衙路与航天大道交汇处）",
      "location": {
        "lng": 106.77479881042096,
        "lat": 26.647611753929553
      }
    },
    {
      "title": "澜山壹号",
      "price": "6700",
      "address": "南明油榨街101号（锦绣家园对面）",
      "location": {
        "lng": 106.7410028719256,
        "lat": 26.566137520567608
      }
    },
    {
      "title": "幸福里",
      "price": "3100",
      "address": "乌当龙广路（武警消防大队旁）",
      "location": {
        "lng": 106.77858997857027,
        "lat": 26.65492713568952
      }
    },
    {
      "title": "住那里",
      "price": "4280",
      "address": "云岩鹿冲关路与春雷路交汇处（小石城附近）",
      "location": {
        "lng": 106.72119010072284,
        "lat": 26.617837335304994
      }
    },
    {
      "title": "东泓福源国际",
      "price": "6300",
      "address": "南明油榨街（富源北路）",
      "location": {
        "lng": 106.74783875856603,
        "lat": 26.557965124559313
      }
    },
    {
      "title": "北大资源缤纷广场",
      "price": "5500",
      "address": "小河黄河路与浦江路交汇处（原185厂）",
      "location": {
        "lng": 106.70098005839995,
        "lat": 26.49694476994974
      }
    },
    {
      "title": "溪山御景",
      "price": "6500",
      "address": "花溪甲秀南路国宾馆路口（迎宾馆丁字路口南侧）",
      "location": {
        "lng": 106.67283494664547,
        "lat": 26.449465705211757
      }
    },
    {
      "title": "碧桂园花溪首府",
      "price": "4999",
      "address": "花溪孟关乡国际贸易汽车城旁",
      "location": {
        "lng": 106.75544894233546,
        "lat": 26.413945663658698
      }
    },
    {
      "title": "贝地领航",
      "price": "4800",
      "address": "云岩二桥后冲路8号",
      "location": {
        "lng": 106.68364357053805,
        "lat": 26.583989908798877
      }
    },
    {
      "title": "恒大都会广场",
      "price": "6200",
      "address": "乌当振华广场旁",
      "location": {
        "lng": 106.78364287340116,
        "lat": 26.6482679767899
      }
    },
    {
      "title": "万隆国际",
      "price": "4980",
      "address": "云岩东山路281号（东山路与仙鹤路交汇处）",
      "location": {
        "lng": 106.74460172379469,
        "lat": 26.591620003959175
      }
    },
    {
      "title": "梦想典城",
      "price": "9500",
      "address": "云岩宅吉小区永安寺街9号（实验二小/实验二中旁）",
      "location": {
        "lng": 106.71884487443387,
        "lat": 26.609961005211108
      }
    },
    {
      "title": "元琦林居",
      "price": "5800",
      "address": "小河转盘黔江路（紧邻贵阳药用植物园）",
      "location": {
        "lng": 106.70098005839995,
        "lat": 26.49694476994974
      }
    },
    {
      "title": "万科缇香郡",
      "price": "7500",
      "address": "云岩云潭南路延伸段（万科城旁）",
      "location": {
        "lng": 106.71791401556294,
        "lat": 26.60352465030005
      }
    },
    {
      "title": "优品道·现代城",
      "price": "5800",
      "address": "白云云环路中段(优品城邦旁)",
      "location": {
        "lng": 106.61762726930964,
        "lat": 26.687418674268926
      }
    },
    {
      "title": "施格名门",
      "price": "9200",
      "address": "云岩宝山北路366号（贵州日报社旁）",
      "location": {
        "lng": 106.72564743786525,
        "lat": 26.599819193775808
      }
    },
    {
      "title": "弘宇琉森堡",
      "price": "8000",
      "address": "南明汤巴关武警医院旁（贵阳森林公园旁）",
      "location": {
        "lng": 106.76149220012638,
        "lat": 26.559571292185
      }
    },
    {
      "title": "黄埔国际",
      "price": "5581",
      "address": "小河黄河路241号（300医院旁）",
      "location": {
        "lng": 106.70098005839995,
        "lat": 26.49694476994974
      }
    },
    {
      "title": "华颐和苑",
      "price": "5500",
      "address": "白云云环路与南湖路交汇处（永茂中学隔壁）",
      "location": {
        "lng": 106.61862158032235,
        "lat": 26.68181219889539
      }
    },
    {
      "title": "保利香槟花园",
      "price": "5800",
      "address": "乌当北衙路与航天大道交汇处（保利紫微郡项目对面）",
      "location": {
        "lng": 106.77479881042096,
        "lat": 26.647611753929553
      }
    },
    {
      "title": "保利林语",
      "price": "4200",
      "address": "乌当水东路与春天大道交汇处(保利春天大道旁)",
      "location": {
        "lng": 106.79293231715138,
        "lat": 26.62782269607394
      }
    },
    {
      "title": "深高速·茵特拉根小镇",
      "price": "10000",
      "address": "双龙临空经济区贵龙大道与贵龙纵线交汇处",
      "location": {
        "lng": 106.87731129182883,
        "lat": 26.48399598919044
      }
    },
    {
      "title": "溪谷",
      "price": "5300",
      "address": "花溪甲秀南路北极熊实业旁",
      "location": {
        "lng": 106.6551182635529,
        "lat": 26.41928963605271
      }
    },
    {
      "title": "金狮小区狮子组团",
      "price": "4100",
      "address": "云岩云岩区百花山路（301终点站）",
      "location": {
        "lng": 106.73128999300897,
        "lat": 26.603253134736086
      }
    },
    {
      "title": "一鸣宽城",
      "price": "6600",
      "address": "小河经开区开发大道69号（邮政中心对面）",
      "location": {
        "lng": 106.70098005839995,
        "lat": 26.49694476994974
      }
    },
    {
      "title": "红岩东郡",
      "price": "4915",
      "address": "南明红岩滨河路(万科玲珑湾对面）",
      "location": {
        "lng": 106.75063130024297,
        "lat": 26.582167405693376
      }
    },
    {
      "title": "南山高地",
      "price": "4800",
      "address": "小河区清水江路153号（三00医院往东500米）",
      "location": {
        "lng": 106.70098005839995,
        "lat": 26.49694476994974
      }
    },
    {
      "title": "贵园御景",
      "price": "5680",
      "address": "云岩后坝（贵黄公路北侧）",
      "location": {
        "lng": 106.66163614285647,
        "lat": 26.578637056358208
      }
    },
    {
      "title": "恒森自在城",
      "price": "5500",
      "address": "小河长江路与珠江路交汇处（小河转盘向长江路直行约1公里处）",
      "location": {
        "lng": 106.70098005839995,
        "lat": 26.49694476994974
      }
    },
    {
      "title": "城市魔方",
      "price": "4800",
      "address": "乌当大坡路36号（新添大道市公安局背面）",
      "location": {
        "lng": 106.75400802077249,
        "lat": 26.629081104942088
      }
    },
    {
      "title": "白金壹号",
      "price": "6800",
      "address": "白云白云区同心东路（贵铝文体中心正对面）",
      "location": {
        "lng": 106.65786858217594,
        "lat": 26.690376092098212
      }
    },
    {
      "title": "御府壹号",
      "price": "3300",
      "address": "清镇百花大道中段新行政中心西南侧",
      "location": {
        "lng": 106.35381440325907,
        "lat": 26.68862111057054
      }
    },
    {
      "title": "云祥山庄",
      "price": "5100",
      "address": "白云南湖七一路118号（白云区政府后面）",
      "location": {
        "lng": 106.62434619028457,
        "lat": 26.685876522565906
      }
    },
    {
      "title": "都市阳光",
      "price": "5500",
      "address": "南明沙冲路与朝阳洞路交汇处（贵阳市二十九中旁）",
      "location": {
        "lng": 106.71090444784036,
        "lat": 26.55576405049466
      }
    },
    {
      "title": "经典天成",
      "price": "8380",
      "address": "南明龙洞堡见龙路1号（贵阳轻工职业技术学院对面）",
      "location": {
        "lng": 106.78704931436849,
        "lat": 26.553450965069164
      }
    },
    {
      "title": "万科金域华府花城",
      "price": "价格待定",
      "address": "小河珠江路与长江路交叉口（小河转盘向长江路直行约1公里处）",
      "location": {
        "lng": 106.70098005839995,
        "lat": 26.49694476994974
      }
    },
    {
      "title": "宏明大厦",
      "price": "4800",
      "address": "小河261号（二十五中对面）",
      "location": {
        "lng": 106.71277678062435,
        "lat": 26.528172306907347
      }
    },
    {
      "title": "北尚华城",
      "price": "4680",
      "address": "白云云环路曹关湿地公园旁",
      "location": {
        "lng": 106.62639675227153,
        "lat": 26.69897180641361
      }
    },
    {
      "title": "特兴青云都汇",
      "price": "50000",
      "address": "南明云岩区青云路117号（尚义小学东侧）",
      "location": {
        "lng": 106.72108643141618,
        "lat": 26.57108575785588
      }
    },
    {
      "title": "龙湾国际二期",
      "price": "6500",
      "address": "小河黄河北路与黄河路交叉口（小河转盘喜百年酒店正对面）",
      "location": {
        "lng": 106.70098005839995,
        "lat": 26.49694476994974
      }
    },
    {
      "title": "红湖国际",
      "price": "2600",
      "address": "清镇塔峰路（原造船厂）",
      "location": {
        "lng": 106.46349933997706,
        "lat": 26.554985406493156
      }
    },
    {
      "title": "中铁国际生态城云栖谷",
      "price": "9513",
      "address": "双龙临空经济区中铁国际生态城",
      "location": {
        "lng": 106.8554674572585,
        "lat": 26.499577165611008
      }
    },
    {
      "title": "清镇中央公园",
      "price": "3500",
      "address": "清镇东路与红旗北路交汇处",
      "location": {
        "lng": 106.47902424386334,
        "lat": 26.5706521678532
      }
    },
    {
      "title": "百灵尚品一号",
      "price": "9557",
      "address": "云岩宝山北路（新印厂旁）",
      "location": {
        "lng": 106.72537868551777,
        "lat": 26.5926555942079
      }
    },
    {
      "title": "中和宝霖广场",
      "price": "6800",
      "address": "云岩金源街与北京西路交汇处（十字路口附近）",
      "location": {
        "lng": 106.66752412315019,
        "lat": 26.598963172540795
      }
    },
    {
      "title": "富源同坐",
      "price": "4200",
      "address": "南明富源中路31号（消防支队旁）",
      "location": {
        "lng": 106.74275152249736,
        "lat": 26.550225069569837
      }
    },
    {
      "title": "祥和家园三期嘉院",
      "price": "4491",
      "address": "南明二戈寨富源南路（贵阳市三十九中旁）",
      "location": {
        "lng": 106.74005437179895,
        "lat": 26.517822039327722
      }
    },
    {
      "title": "朝庭四季花园",
      "price": "6800",
      "address": "南明龙洞堡见龙洞路132号（警官职业学校斜对面）",
      "location": {
        "lng": 106.7837594689648,
        "lat": 26.55972373405934
      }
    },
    {
      "title": "多彩贵州城",
      "price": "30000",
      "address": "南明双龙航空港.龙洞堡老里坡1号（油小线转盘处）",
      "location": {
        "lng": 106.78782311473452,
        "lat": 26.553859535492155
      }
    },
    {
      "title": "麓湖宫",
      "price": "13000",
      "address": "清镇幼儿师范学院旁",
      "location": {
        "lng": 106.35381440325907,
        "lat": 26.68862111057054
      }
    },
    {
      "title": "金熙府",
      "price": "10200",
      "address": "南明纪念塔（瑞金南路与青云路交叉路口）",
      "location": {
        "lng": 106.7111163087033,
        "lat": 26.577620678030094
      }
    },
    {
      "title": "恒屹双子座",
      "price": "6800",
      "address": "南明大理石路内前行100米",
      "location": {
        "lng": 106.7151636331602,
        "lat": 26.557377608574107
      }
    },
    {
      "title": "兴隆城市花园沐风园",
      "price": "6000",
      "address": "小河区漓江路57号（小河边上兴隆桥头）",
      "location": {
        "lng": 106.70098005839995,
        "lat": 26.49694476994974
      }
    },
    {
      "title": "世纪南山",
      "price": "8358",
      "address": "南明南厂路120号(军区门口）",
      "location": {
        "lng": 106.72741350649727,
        "lat": 26.556416844272388
      }
    },
    {
      "title": "依水丽都",
      "price": "16000",
      "address": "南明都司路90号（博爱路）",
      "location": {
        "lng": 106.71572390810321,
        "lat": 26.5787948343641
      }
    },
    {
      "title": "名门国际",
      "price": "12800",
      "address": "云岩黔灵西路与合群路交汇处（爱丽医院对面）",
      "location": {
        "lng": 106.71517283630017,
        "lat": 26.59270537547005
      }
    },
    {
      "title": "美林谷",
      "price": "5500",
      "address": "小河西南环线中段（花溪大道与西南环线交界往东150米）",
      "location": {
        "lng": 106.70377010548246,
        "lat": 26.514712098813586
      }
    },
    {
      "title": "泰和广场",
      "price": "4800",
      "address": "白云南湖东路（原长山路）",
      "location": {
        "lng": 106.63645868037021,
        "lat": 26.679575819775962
      }
    },
    {
      "title": "金马国际",
      "price": "5850",
      "address": "云岩改茶大道141号",
      "location": {
        "lng": 106.6630750692829,
        "lat": 26.573321197570635
      }
    },
    {
      "title": "时代家园",
      "price": "3950",
      "address": "小河小河开发大道与金戈大道交汇处",
      "location": {
        "lng": 106.70098005839995,
        "lat": 26.49694476994974
      }
    },
    {
      "title": "尚善御景",
      "price": "4300",
      "address": "乌当北衙路中段（乌当妇幼保健院旁）",
      "location": {
        "lng": 106.77209674966818,
        "lat": 26.639367946923073
      }
    },
    {
      "title": "亚青城",
      "price": "5098",
      "address": "小河黄河路中段（原柴油机厂）",
      "location": {
        "lng": 106.70098005839995,
        "lat": 26.49694476994974
      }
    },
    {
      "title": "国际迪拜城",
      "price": "4000",
      "address": "清镇市红旗路（人民广场对面）",
      "location": {
        "lng": 106.47702082405124,
        "lat": 26.56101629265848
      }
    },
    {
      "title": "顺海花园",
      "price": "4100",
      "address": "乌当新添寨顺海顺新路168号（新添大道南段）",
      "location": {
        "lng": 106.76243718069205,
        "lat": 26.63071501322428
      }
    },
    {
      "title": "源兴御景华府",
      "price": "3000",
      "address": "清镇栗山路东门广场对面（城东派出所旁）",
      "location": {
        "lng": 106.49549454602736,
        "lat": 26.563227347701112
      }
    },
    {
      "title": "润德居",
      "price": "4500",
      "address": "小河平桥青龙路(小河平桥）",
      "location": {
        "lng": 114.13908596629817,
        "lat": 32.30784006229697
      }
    },
    {
      "title": "青果二期壹品峰景",
      "price": "3500",
      "address": "乌当航天大道82号（保利公园2010旁）",
      "location": {
        "lng": 106.77023393353277,
        "lat": 26.653435249845344
      }
    },
    {
      "title": "白晶九号",
      "price": "8000",
      "address": "南明空港区贵新高速（贵阳至龙里方向）中铁生态城出口",
      "location": {
        "lng": 106.72417349818495,
        "lat": 26.54141327227778
      }
    },
    {
      "title": "尚湖城凤凰栖",
      "price": "25000",
      "address": "清镇贵州职教城内(观山湖区百职路与金清线交汇处)",
      "location": {
        "lng": 106.35381440325907,
        "lat": 26.68862111057054
      }
    },
    {
      "title": "锦绣蓝湾",
      "price": "3500",
      "address": "清镇云岭中路与沿河路交汇处（天之娇幼儿园旁）",
      "location": {
        "lng": 106.47157430072905,
        "lat": 26.56767856106488
      }
    },
    {
      "title": "中深高原明珠花园",
      "price": "3000",
      "address": "清镇云岭东路与红枫路交汇处（万想城旁）",
      "location": {
        "lng": 106.48414741313428,
        "lat": 26.566400319505426
      }
    },
    {
      "title": "观云",
      "price": "4500",
      "address": "乌当大坡路36号（云岩区和乌当区交界处）",
      "location": {
        "lng": 106.7520881622372,
        "lat": 26.63319970025007
      }
    },
    {
      "title": "太阳谷国际康养生活社区",
      "price": "价格待定",
      "address": "龙洞堡空港经济区贵新高速路旁中铁国际旅游度假区内",
      "location": {
        "lng": 121.23942907365219,
        "lat": 36.70326896551306
      }
    },
    {
      "title": "澜岸花园",
      "price": "9000",
      "address": "白云龙井路188号（艳山红政府旁）",
      "location": {
        "lng": 106.62036183615666,
        "lat": 26.675040363981918
      }
    },
    {
      "title": "红枫中央大街",
      "price": "3500",
      "address": "清镇红旗路与红枫街交汇路口（清镇市人民广场旁）",
      "location": {
        "lng": 106.47978228705243,
        "lat": 26.56075057432639
      }
    },
    {
      "title": "印象康城",
      "price": "3600",
      "address": "清镇云岭东路（信合大楼的正对面）",
      "location": {
        "lng": 106.48098476689245,
        "lat": 26.566760308752876
      }
    },
    {
      "title": "中央美域",
      "price": "4000",
      "address": "清镇红枫大街8号（原科委）",
      "location": {
        "lng": 106.47685454051495,
        "lat": 26.55769495190163
      }
    },
    {
      "title": "逸坤尚品",
      "price": "2700",
      "address": "清镇物流新城（沪昆高速朱关出口）",
      "location": {
        "lng": 106.49877237749315,
        "lat": 26.55388172768331
      }
    },
    {
      "title": "君悦国际",
      "price": "4600",
      "address": "清镇云岭东路与云岭中路交汇处",
      "location": {
        "lng": 106.48660711645036,
        "lat": 26.565253800884165
      }
    },
    {
      "title": "嘉馨苑",
      "price": "4600",
      "address": "乌当白岩路79号(生康大药房旁)",
      "location": {
        "lng": 106.78253982070989,
        "lat": 26.635564441818584
      }
    },
    {
      "title": "和谐水乡",
      "price": "4500",
      "address": "清镇云岭中路沿河路中段（梯青塔湿地公园斜对面）",
      "location": {
        "lng": 106.46737827167635,
        "lat": 26.569550162987422
      }
    },
    {
      "title": "金都园林鑫城",
      "price": "5500",
      "address": "开阳环城北路与与规划道路交汇处（开阳县第四中学旁）",
      "location": {
        "lng": 106.96651682877248,
        "lat": 27.069498893634886
      }
    },
    {
      "title": "锦嘉汇景城",
      "price": "17778",
      "address": "乌当乌当区新添大道北177号(泉天下西南边）",
      "location": {
        "lng": 106.78144927782114,
        "lat": 26.64380472336567
      }
    },
    {
      "title": "温泉御景·外滩壹号",
      "price": "4800",
      "address": "乌当水东路贵御温泉旁",
      "location": {
        "lng": 106.77731527586558,
        "lat": 26.622101143279
      }
    },
    {
      "title": "四季贵州",
      "price": "20000",
      "address": "[一环至中环]清镇百马大道与清州大道交汇处",
      "location": {
        "lng": 106.51567124235143,
        "lat": 26.494021389164875
      }
    },
    {
      "title": "贵安鸿通城",
      "price": "3400",
      "address": "平坝县东门桥原平坝一中老校区",
      "location": {
        "lng": 106.27382222413334,
        "lat": 26.42142019042245
      }
    },
    {
      "title": "碧海龙庭",
      "price": "5500",
      "address": "南明见龙洞路武警医院正对面（万亩森林公园旁）",
      "location": {
        "lng": 106.76149220012638,
        "lat": 26.559571292185
      }
    },
    {
      "title": "贵高速·花溪26°",
      "price": "价格待定",
      "address": "花溪花溪区主城南侧田园南路中段，田园南路与思杨路交汇处",
      "location": {
        "lng": 106.67291305969938,
        "lat": 26.3862890514029
      }
    },
    {
      "title": "理想城",
      "price": "4200",
      "address": "南明油榨街青年路（168号省团校旁）",
      "location": {
        "lng": 106.74218102026258,
        "lat": 26.572364365918695
      }
    },
    {
      "title": "恒立南岳大院",
      "price": "11000",
      "address": "南明南厂路(省军区旁）",
      "location": {
        "lng": 106.72333686763666,
        "lat": 26.559073304143304
      }
    },
    {
      "title": "天赐红树城",
      "price": "4500",
      "address": "乌当航天大道中段红树城（公交车站消防队旁）",
      "location": {
        "lng": 106.77829413512524,
        "lat": 26.65829285641198
      }
    },
    {
      "title": "温泉曦月湾",
      "price": "4000",
      "address": "乌当新添大道北段278号(振华电子广场旁)",
      "location": {
        "lng": 106.79014676968116,
        "lat": 26.655752763019557
      }
    },
    {
      "title": "春天里",
      "price": "价格待定",
      "address": "南明药用植物园门口",
      "location": {
        "lng": 106.70323166115996,
        "lat": 26.546633592468474
      }
    },
    {
      "title": "祥源·馨月港",
      "price": "11500",
      "address": "南明贵惠路177号（解放桥下）",
      "location": {
        "lng": 106.70539619835338,
        "lat": 26.57318730239854
      }
    },
    {
      "title": "劲嘉新天荟",
      "price": "8000",
      "address": "乌当新添大道北段与创业路交汇处（原火炬大厦）",
      "location": {
        "lng": 106.78101063524076,
        "lat": 26.640522972259202
      }
    },
    {
      "title": "阳晨美林",
      "price": "价格待定",
      "address": "乌当新添寨火炬大道中段（天安药业旁）",
      "location": {
        "lng": 106.77582067515857,
        "lat": 26.637159342854318
      }
    },
    {
      "title": "公园美郡",
      "price": "价格待定",
      "address": "清镇站街新城站马大道3号",
      "location": {
        "lng": 106.35381440325907,
        "lat": 26.68862111057054
      }
    },
    {
      "title": "美林湾",
      "price": "价格待定",
      "address": "云岩白修县与龙扎县交汇处",
      "location": {
        "lng": 106.71791401556294,
        "lat": 26.60352465030005
      }
    },
    {
      "title": "首钢·贵州之光",
      "price": "价格待定",
      "address": "南明油榨街10号",
      "location": {
        "lng": 106.74052257222382,
        "lat": 26.565550015989054
      }
    },
    {
      "title": "中天金融城国际社区",
      "price": "价格待定",
      "address": "观山湖贵阳·金融北城",
      "location": {
        "lng": 112.65415978104117,
        "lat": 22.42270520862988
      }
    },
    {
      "title": "万科翡翠天骄",
      "price": "价格待定",
      "address": "观山湖观山西路与诚信南路交汇处",
      "location": {
        "lng": 106.61520983935253,
        "lat": 26.639353398146387
      }
    },
    {
      "title": "万科大都会花样",
      "price": "价格待定",
      "address": "小河盘江路与盘江南路交汇处",
      "location": {
        "lng": 106.70098005839995,
        "lat": 26.49694476994974
      }
    },
    {
      "title": "万科花溪大都会",
      "price": "价格待定",
      "address": "花溪明珠大道与田园中路交汇处（花溪区政府对面）",
      "location": {
        "lng": 106.67681023149206,
        "lat": 26.41616254472909
      }
    },
    {
      "title": "贵安迎宾城",
      "price": "2700",
      "address": "贵安新区贵安新区贵安大道武装部旁",
      "location": {
        "lng": 115.8867310100507,
        "lat": 38.8782552166
      }
    },
    {
      "title": "碧桂园·学府1号",
      "price": "价格待定",
      "address": "贵安新区花溪大学城内栋青路与人才路交汇处",
      "location": {
        "lng": 106.62649314314763,
        "lat": 26.387176166175497
      }
    },
    {
      "title": "贵阳恒大滨河左岸",
      "price": "价格待定",
      "address": "[请选择]观山湖贵阳观山湖区黔灵山路与兴义路交汇处",
      "location": {
        "lng": 106.64335824070179,
        "lat": 26.653147880605594
      }
    },
    {
      "title": "万科理想城",
      "price": "价格待定",
      "address": "观山湖贵阳观山湖十二滩旁",
      "location": {
        "lng": 106.61435121379382,
        "lat": 26.642862590823796
      }
    },
    {
      "title": "景融·南湖里",
      "price": "价格待定",
      "address": "白云贵阳市白云区南湖路66号",
      "location": {
        "lng": 106.62460431292982,
        "lat": 26.680680382184626
      }
    },
    {
      "title": "山水黔城",
      "price": "6053",
      "address": "四方河路1号查看详情楼盘图片业主论坛周边商铺",
      "location": {
        "lng": 106.70371576249066,
        "lat": 26.531169257274723
      }
    },
    {
      "title": "金龙国际花园",
      "price": "9231",
      "address": "金阳北路行政中心前行100米查看详情楼盘图片业主论坛周边商铺",
      "location": {
        "lng": 119.94899147586365,
        "lat": 31.706468423073787
      }
    },
    {
      "title": "金狮小区",
      "price": "5115",
      "address": "百花山路135号查看详情楼盘图片业主论坛周边商铺",
      "location": {
        "lng": 106.7315816108249,
        "lat": 26.602529387964644
      }
    },
    {
      "title": "帝景传说",
      "price": "6873",
      "address": "金阳南路7号查看详情楼盘图片业主论坛周边商铺",
      "location": {
        "lng": 112.4919255750032,
        "lat": 37.86184849716763
      }
    },
    {
      "title": "金元国际新城",
      "price": "9854",
      "address": "北邻贵阳市级行政中心查看详情楼盘图片业主论坛周边商铺",
      "location": {
        "lng": 106.7091770961758,
        "lat": 26.62990674144093
      }
    },
    {
      "title": "保利温泉新城",
      "price": "7167",
      "address": "顺海中路88号查看详情楼盘图片业主论坛周边商铺",
      "location": {
        "lng": 106.76770612698108,
        "lat": 26.615642583179174
      }
    },
    {
      "title": "观山湖1号",
      "price": "9495",
      "address": "金阳南路54号查看详情楼盘图片业主论坛周边商铺",
      "location": {
        "lng": 112.4919255750032,
        "lat": 37.86184849716763
      }
    },
    {
      "title": "世纪城龙凯苑",
      "price": "6434",
      "address": "金阳新区世纪城龙凯苑查看详情楼盘图片业主论坛周边商铺",
      "location": {
        "lng": 106.63357022481742,
        "lat": 26.613321643987632
      }
    },
    {
      "title": "世纪城龙耀苑",
      "price": "6472",
      "address": "金阳区金阳南路6号查看详情楼盘图片业主论坛周边商铺",
      "location": {
        "lng": 106.6415272254797,
        "lat": 26.613328851534504
      }
    },
    {
      "title": "中天托斯卡纳",
      "price": "7432",
      "address": "云峰大道一侧南湖新区中环路旁查看详情小区图片业主论坛周边商铺",
      "location": {
        "lng": 120.84453542647287,
        "lat": 30.71635792123517
      }
    },
    {
      "title": "保利云山国际",
      "price": "8786",
      "address": "市北路148号查看详情楼盘图片业主论坛周边商铺",
      "location": {
        "lng": 106.70310805432183,
        "lat": 26.618680766013988
      }
    },
    {
      "title": "世纪城龙泉苑",
      "price": "6225",
      "address": "金阳南路6号(锦绣公园下精英学校之间)查看详情楼盘图片业主论坛周边商铺",
      "location": {
        "lng": 106.64182737899456,
        "lat": 26.60898269414041
      }
    },
    {
      "title": "兴隆城市花园",
      "price": "5267",
      "address": "漓江路57号查看详情楼盘图片业主论坛周边商铺",
      "location": ""
    },
    {
      "title": "兴隆珠江湾畔",
      "price": "7502",
      "address": "珠江路8号查看详情楼盘图片业主论坛周边商铺",
      "location": {
        "lng": 118.79203956429734,
        "lat": 32.05626239859533
      }
    },
    {
      "title": "银海元隆广场",
      "price": "13383",
      "address": "云岩区北京路（省博物馆对面）查看详情楼盘图片业主论坛周边商铺",
      "location": {
        "lng": 106.71158329731402,
        "lat": 26.59825905877621
      }
    },
    {
      "title": "世纪城龙锦苑",
      "price": "6509",
      "address": "世纪城（北京西路旁合肥路）查看详情楼盘图片业主论坛周边商铺",
      "location": {
        "lng": 106.64023232168073,
        "lat": 26.608044351658137
      }
    },
    {
      "title": "远大生态风景",
      "price": "7452",
      "address": "长岭南路1号查看详情楼盘图片业主论坛周边商铺",
      "location": {
        "lng": 106.6497972155443,
        "lat": 26.636638207077194
      }
    },
    {
      "title": "贝地卢加诺",
      "price": "5675",
      "address": "二桥后冲路铁路桥进入查看详情楼盘图片业主论坛周边商铺",
      "location": {
        "lng": 106.68254617537488,
        "lat": 26.58238471536983
      }
    },
    {
      "title": "金华园",
      "price": "13194",
      "address": "观山湖迎宾东路156号查看详情楼盘图片业主论坛周边商铺",
      "location": {
        "lng": 112.58315632468074,
        "lat": 40.9016573968645
      }
    },
    {
      "title": "绿苑小区",
      "price": "5057",
      "address": "沙冲南路87号查看详情楼盘图片业主论坛周边商铺",
      "location": {
        "lng": 106.70937010340268,
        "lat": 26.552771326926223
      }
    },
    {
      "title": "乌江怡苑",
      "price": "6079",
      "address": "新添大道220号查看详情楼盘图片业主论坛周边商铺",
      "location": {
        "lng": 106.73828390146993,
        "lat": 26.61490741113097
      }
    },
    {
      "title": "经典时代花园广场",
      "price": "8785",
      "address": "宝山南路185号查看详情楼盘图片业主论坛周边商铺",
      "location": {
        "lng": 106.73774610841892,
        "lat": 26.569147162070802
      }
    },
    {
      "title": "兴隆枫丹白鹭",
      "price": "5569",
      "address": "云岩三桥改茶路165号查看详情楼盘图片业主论坛周边商铺",
      "location": {
        "lng": 106.67349834245229,
        "lat": 26.581633009250453
      }
    },
    {
      "title": "蓝波湾花园",
      "price": "13981",
      "address": "都司路188号查看详情楼盘图片业主论坛周边商铺",
      "location": {
        "lng": 106.71300306917207,
        "lat": 26.579454744882902
      }
    },
    {
      "title": "明诚景怡苑",
      "price": "6281",
      "address": "金阳南路4号车站查看详情楼盘图片业主论坛周边商铺",
      "location": {
        "lng": 112.4919255750032,
        "lat": 37.86184849716763
      }
    },
    {
      "title": "恒大绿洲",
      "price": "6359",
      "address": "白云云环路9号查看详情楼盘图片业主论坛周边商铺",
      "location": {
        "lng": 113.33626959885972,
        "lat": 23.136101659191198
      }
    },
    {
      "title": "花果园一期住宅",
      "price": "7137",
      "address": "贵阳市南明区花果园大街1号查看详情楼盘图片业主论坛周边商铺",
      "location": {
        "lng": 106.69568092455425,
        "lat": 26.574196172937505
      }
    },
    {
      "title": "小石城",
      "price": "6299",
      "address": "蛮坡春雷路27号查看详情楼盘图片业主论坛周边商铺",
      "location": {
        "lng": 106.72099966534462,
        "lat": 26.619960511633494
      }
    },
    {
      "title": "碧海乾图花园",
      "price": "6010",
      "address": "金阳兴筑西路21号查看详情楼盘图片业主论坛周边商铺",
      "location": {
        "lng": 103.20105938361293,
        "lat": 27.706169003933557
      }
    },
    {
      "title": "世纪城龙盛苑",
      "price": "6728",
      "address": "金阳南路6号(世纪城金源街西部明珠塔下)查看详情楼盘图片业主论坛周边商铺",
      "location": {
        "lng": 106.6415272254797,
        "lat": 26.613328851534504
      }
    },
    {
      "title": "保利国际广场",
      "price": "13555",
      "address": "南明区市南路38号（原市二医旧址）查看详情楼盘图片业主论坛周边商铺",
      "location": {
        "lng": 106.72960896516294,
        "lat": 26.568916958487332
      }
    },
    {
      "title": "世纪城龙贤苑",
      "price": "6589",
      "address": "世纪城金源街56号查看详情楼盘图片业主论坛周边商铺",
      "location": {
        "lng": 106.63922702079839,
        "lat": 26.603954086881576
      }
    },
    {
      "title": "广信四季家园",
      "price": "4873",
      "address": "白云大道192号查看详情楼盘图片业主论坛周边商铺",
      "location": ""
    },
    {
      "title": "大兴星城",
      "price": "5703",
      "address": "清水江路211号檀香山查看详情楼盘图片业主论坛周边商铺",
      "location": {
        "lng": 106.72552616662144,
        "lat": 26.518662549176362
      }
    },
    {
      "title": "世纪城龙晖苑",
      "price": "6868",
      "address": "金阳南路6号查看详情楼盘图片业主论坛周边商铺",
      "location": {
        "lng": 112.4919255750032,
        "lat": 37.86184849716763
      }
    },
    {
      "title": "黎阳家园",
      "price": "5630",
      "address": "康乃馨路14号查看详情楼盘图片业主论坛周边商铺",
      "location": {
        "lng": 106.62231971815648,
        "lat": 26.63734596862102
      }
    },
    {
      "title": "欣歆园",
      "price": "5814",
      "address": "蛮坡春雷路26号查看详情楼盘图片业主论坛周边商铺",
      "location": {
        "lng": 106.72099966534462,
        "lat": 26.619960511633494
      }
    },
    {
      "title": "万科劲嘉金域华府",
      "price": "8421",
      "address": "长江路176号查看详情楼盘图片业主论坛周边商铺",
      "location": {
        "lng": 125.33302290599845,
        "lat": 43.91155061549616
      }
    },
    {
      "title": "睿力上城",
      "price": "6892",
      "address": "新区金阳南路298号（金阳医院斜对面）查看详情楼盘图片业主论坛周边商铺",
      "location": {
        "lng": 106.6285963072103,
        "lat": 26.61491710105434
      }
    },
    {
      "title": "世纪园",
      "price": "5319",
      "address": "云岩区蛮坡查看详情楼盘图片业主论坛周边商铺",
      "location": {
        "lng": 106.71685033200893,
        "lat": 26.617138090341516
      }
    },
    {
      "title": "中天花园",
      "price": "7311",
      "address": "新添大道南段289号查看详情楼盘图片业主论坛周边商铺",
      "location": {
        "lng": 106.7294510189586,
        "lat": 26.60923886144125
      }
    },
    {
      "title": "世纪城龙禧苑",
      "price": "6313",
      "address": "金阳南路6号查看详情楼盘图片业主论坛周边商铺",
      "location": {
        "lng": 112.4919255750032,
        "lat": 37.86184849716763
      }
    },
    {
      "title": "小城故事",
      "price": "4697",
      "address": "珠江路8号查看详情楼盘图片业主论坛周边商铺",
      "location": {
        "lng": 118.79203956429734,
        "lat": 32.05626239859533
      }
    },
    {
      "title": "世纪城龙慧苑",
      "price": "6533",
      "address": "北京西路561号查看详情楼盘图片业主论坛周边商铺",
      "location": ""
    },
    {
      "title": "碧园花城",
      "price": "6275",
      "address": "中心转盘（四十四医院正对面）查看详情楼盘图片业主论坛周边商铺",
      "location": {
        "lng": 104.74778990886223,
        "lat": 31.48383076850957
      }
    },
    {
      "title": "世纪城龙昌苑",
      "price": "7134",
      "address": "金阳新区世纪城西部明珠塔旁查看详情楼盘图片业主论坛周边商铺",
      "location": {
        "lng": 106.63357022481742,
        "lat": 26.613321643987632
      }
    },
    {
      "title": "智慧龙城",
      "price": "6459",
      "address": "松山路15号查看详情楼盘图片业主论坛周边商铺",
      "location": ""
    },
    {
      "title": "香江花园",
      "price": "4997",
      "address": "香江路8号查看详情楼盘图片业主论坛周边商铺",
      "location": {
        "lng": 120.81337427486832,
        "lat": 37.27644574983585
      }
    },
    {
      "title": "世纪城",
      "price": "6647",
      "address": "金阳南路6号查看详情楼盘图片业主论坛周边商铺",
      "location": {
        "lng": 112.4919255750032,
        "lat": 37.86184849716763
      }
    },
    {
      "title": "美树阳光",
      "price": "5663",
      "address": "朝阳洞路省建四公司旁查看详情楼盘图片业主论坛周边商铺",
      "location": {
        "lng": 103.81210774304792,
        "lat": 25.540072968078224
      }
    },
    {
      "title": "银海嘉怡花园",
      "price": "8706",
      "address": "半边街28号查看详情楼盘图片业主论坛周边商铺",
      "location": {
        "lng": 103.25384385725428,
        "lat": 29.83234455205799
      }
    },
    {
      "title": "枫林小区",
      "price": "6141",
      "address": "贵阳市云岩去黄山冲路贵州财经学院大门旁查看详情楼盘图片业主论坛周边商铺",
      "location": {
        "lng": 106.727939105051,
        "lat": 26.62051418506722
      }
    },
    {
      "title": "世纪城龙嘉苑",
      "price": "6908",
      "address": "金阳南路6号查看详情楼盘图片业主论坛周边商铺",
      "location": {
        "lng": 112.4919255750032,
        "lat": 37.86184849716763
      }
    },
    {
      "title": "世纪城龙吉苑",
      "price": "7211",
      "address": "金阳南路6号龙吉查看详情楼盘图片业主论坛周边商铺",
      "location": {
        "lng": 112.4919255750032,
        "lat": 37.86184849716763
      }
    },
    {
      "title": "世纪城龙瑞苑",
      "price": "7242",
      "address": "金阳南路6号查看详情楼盘图片业主论坛周边商铺",
      "location": {
        "lng": 112.4919255750032,
        "lat": 37.86184849716763
      }
    },
    {
      "title": "在水一方",
      "price": "10020",
      "address": "河滨路255号查看详情楼盘图片业主论坛周边商铺",
      "location": {
        "lng": 115.85583331455058,
        "lat": 32.890800001074865
      }
    },
    {
      "title": "花果园U区",
      "price": "4740",
      "address": "贵阳市南明区杨家山隧道与遵义中路交汇处查看详情楼盘图片业主论坛周边商铺",
      "location": {
        "lng": 106.68527530566587,
        "lat": 26.569683123881948
      }
    },
    {
      "title": "花果园C区",
      "price": "6990",
      "address": "花果园大街1号花果园项目C区查看详情楼盘图片业主论坛周边商铺",
      "location": {
        "lng": 106.69568092455425,
        "lat": 26.574196172937505
      }
    },
    {
      "title": "蒙特卡尼水映山城",
      "price": "4811",
      "address": "百花大道155号查看详情楼盘图片业主论坛周边商铺",
      "location": {
        "lng": 106.64900804157776,
        "lat": 26.588396602912514
      }
    },
    {
      "title": "花果园T区",
      "price": "4674",
      "address": "贵阳市南明区延安南路与遵义中路交汇处西100米查看详情楼盘图片业主论坛周边商铺",
      "location": {
        "lng": 106.68527530566587,
        "lat": 26.569683123881948
      }
    },
    {
      "title": "亨特国际",
      "price": "12248",
      "address": "贵阳市南明文昌南路18号查看详情楼盘图片业主论坛周边商铺",
      "location": {
        "lng": 106.72563928304783,
        "lat": 26.58317381586672
      }
    },
    {
      "title": "友谊花园",
      "price": "6544",
      "address": "贵开路155号查看详情楼盘图片业主论坛周边商铺",
      "location": {
        "lng": 106.72608131942643,
        "lat": 26.607928028231065
      }
    },
    {
      "title": "小石城二期",
      "price": "6311",
      "address": "蛮坡春雷路33号查看详情楼盘图片业主论坛周边商铺",
      "location": {
        "lng": 106.72087920976222,
        "lat": 26.62011247722699
      }
    },
    {
      "title": "宅吉小区",
      "price": "8625",
      "address": "盐务街宅吉小区查看详情楼盘图片业主论坛周边商铺",
      "location": {
        "lng": 106.72029263872204,
        "lat": 26.608599094861344
      }
    },
    {
      "title": "花果园L区",
      "price": "5016",
      "address": "贵阳市南明区花果园大街1号L区查看详情楼盘图片业主论坛周边商铺",
      "location": {
        "lng": 106.69568092455425,
        "lat": 26.574196172937505
      }
    },
    {
      "title": "水锦花都三期",
      "price": "5249",
      "address": "育新路68号查看详情楼盘图片业主论坛周边商铺",
      "location": ""
    },
    {
      "title": "盛世花城",
      "price": "15248",
      "address": "南明区观水路（十八中斜对面）宝山南路33号查看详情楼盘图片业主论坛周边商铺",
      "location": {
        "lng": 106.73341777782908,
        "lat": 26.5795242915186
      }
    },
    {
      "title": "世纪城龙泽苑",
      "price": "7368",
      "address": "金阳南路6号查看详情楼盘图片业主论坛周边商铺",
      "location": {
        "lng": 112.4919255750032,
        "lat": 37.86184849716763
      }
    },
    {
      "title": "世纪城龙福苑",
      "price": "6646",
      "address": "龙泉苑街287号查看详情楼盘图片业主论坛周边商铺",
      "location": {
        "lng": 106.63935323990894,
        "lat": 26.613674567440587
      }
    },
    {
      "title": "贵山苑",
      "price": "12000",
      "address": "省府路2号（原贵山饭店）查看详情楼盘图片业主论坛周边商铺",
      "location": {
        "lng": 106.71964298956728,
        "lat": 26.58596774283873
      }
    },
    {
      "title": "上河城",
      "price": "5283",
      "address": "黄河南路5-10号查看详情楼盘图片业主论坛周边商铺",
      "location": ""
    },
    {
      "title": "观山小区",
      "price": "7884",
      "address": "乌当区黔灵山路查看详情楼盘图片业主论坛周边商铺",
      "location": {
        "lng": 106.67724010391575,
        "lat": 26.620729795649314
      }
    },
    {
      "title": "花果园V区",
      "price": "5562",
      "address": "贵阳市南明区花果园V区查看详情楼盘图片业主论坛周边商铺",
      "location": {
        "lng": 106.70170678755728,
        "lat": 26.57594987828108
      }
    },
    {
      "title": "世纪城龙祺苑",
      "price": "6504",
      "address": "金阳南路6号查看详情楼盘图片业主论坛周边商铺",
      "location": {
        "lng": 112.4919255750032,
        "lat": 37.86184849716763
      }
    },
    {
      "title": "中天花园御翠岭",
      "price": "7613",
      "address": "新添大道南段289号查看详情楼盘图片业主论坛周边商铺",
      "location": {
        "lng": 106.7294510189586,
        "lat": 26.60923886144125
      }
    },
    {
      "title": "富华松竹苑",
      "price": "5835",
      "address": "水口寺红岩路78号查看详情楼盘图片业主论坛周边商铺",
      "location": {
        "lng": 106.75245556919067,
        "lat": 26.58394790765072
      }
    },
    {
      "title": "青山小区",
      "price": "5800",
      "address": "黄岭路1号查看详情楼盘图片业主论坛周边商铺",
      "location": ""
    },
    {
      "title": "云凯熙园",
      "price": "6266",
      "address": "黔江路29号查看详情楼盘图片业主论坛周边商铺",
      "location": {
        "lng": 106.70931534539373,
        "lat": 26.531272682879084
      }
    },
    {
      "title": "天海青城",
      "price": "5686",
      "address": "太慈桥黄岭路克玛冲79-83号查看详情楼盘图片业主论坛周边商铺",
      "location": {
        "lng": 106.68799980249703,
        "lat": 26.55974361099126
      }
    },
    {
      "title": "万江小区",
      "price": "5878",
      "address": "黄山冲路（黔灵派出所旁）查看详情楼盘图片业主论坛周边商铺",
      "location": {
        "lng": 106.72885977836786,
        "lat": 26.61818756427145
      }
    },
    {
      "title": "金狮小区顺海组团",
      "price": "5303",
      "address": "百花山路查看详情楼盘图片业主论坛周边商铺",
      "location": {
        "lng": 106.73128999300897,
        "lat": 26.603253134736086
      }
    },
    {
      "title": "丽阳天下",
      "price": "5966",
      "address": "金阳南路八匹马西南查看详情楼盘图片业主论坛周边商铺",
      "location": ""
    },
    {
      "title": "榕筑鲜花广场",
      "price": "4531",
      "address": "小河锦江路1号查看详情楼盘图片业主论坛周边商铺",
      "location": {
        "lng": 106.70098005839995,
        "lat": 26.49694476994974
      }
    },
    {
      "title": "中天花园御景湾",
      "price": "8085",
      "address": "新添大道南段289号查看详情楼盘图片业主论坛周边商铺",
      "location": {
        "lng": 106.7294510189586,
        "lat": 26.60923886144125
      }
    },
    {
      "title": "圣泉流云花园",
      "price": "5675",
      "address": "3桥中坝路99号查看详情楼盘图片业主论坛周边商铺",
      "location": {
        "lng": 106.67607455700845,
        "lat": 26.606769970250447
      }
    },
    {
      "title": "锦绣星城",
      "price": "7178",
      "address": "花溪大道北段100号星云家店城对面查看详情楼盘图片业主论坛周边商铺",
      "location": {
        "lng": 106.70570613890676,
        "lat": 26.57728309974449
      }
    },
    {
      "title": "水锦花都",
      "price": "4965",
      "address": "行政中心对面（松溪路18号）查看详情楼盘图片业主论坛周边商铺",
      "location": {
        "lng": 106.76507867858564,
        "lat": 26.63935751975235
      }
    },
    {
      "title": "金阳新世界珑玥",
      "price": "7803",
      "address": "贵阳市观山湖区金朱路1号查看详情楼盘图片业主论坛周边商铺",
      "location": {
        "lng": 106.62087977215329,
        "lat": 26.660197663613356
      }
    },
    {
      "title": "沙河花园",
      "price": "5802",
      "address": "云岩黄山冲路56号查看详情楼盘图片业主论坛周边商铺",
      "location": {
        "lng": 106.73477911847542,
        "lat": 26.617819859961763
      }
    },
    {
      "title": "锦绣家园",
      "price": "6437",
      "address": "南明富源北路12号查看详情楼盘图片业主论坛周边商铺",
      "location": {
        "lng": 106.74533672709434,
        "lat": 26.564834745785483
      }
    },
    {
      "title": "香榭枫林",
      "price": "6149",
      "address": "大庆路168号查看详情楼盘图片业主论坛周边商铺",
      "location": {
        "lng": 109.19154277382668,
        "lat": 27.722486728814157
      }
    },
    {
      "title": "金华世家",
      "price": "14356",
      "address": "金阳南路（紧临贵阳一中金阳校区）查看详情小区图片业主论坛周边商铺",
      "location": {
        "lng": 103.20105938361293,
        "lat": 27.706169003933557
      }
    },
    {
      "title": "蓝波湾新天卫城",
      "price": "7666",
      "address": "新添大道北段99号查看详情楼盘图片业主论坛周边商铺",
      "location": {
        "lng": 106.77040899980202,
        "lat": 26.635688979170236
      }
    },
    {
      "title": "都市国际",
      "price": "11014",
      "address": "南厂路71号查看详情楼盘图片业主论坛周边商铺",
      "location": {
        "lng": 106.7236685413444,
        "lat": 26.565477570182107
      }
    },
    {
      "title": "大兴星城比华利",
      "price": "5784",
      "address": "清水江路211号查看详情楼盘图片业主论坛周边商铺",
      "location": {
        "lng": 106.72221677498817,
        "lat": 26.519264201622274
      }
    },
    {
      "title": "中天广场",
      "price": "7923",
      "address": "都司大道市少年宫前查看详情楼盘图片业主论坛周边商铺",
      "location": {
        "lng": 116.40099651329326,
        "lat": 39.93440929338663
      }
    },
    {
      "title": "天恒城市花园",
      "price": "11676",
      "address": "富水北路与延安东路交汇处查看详情楼盘图片业主论坛周边商铺",
      "location": {
        "lng": 106.72066443838945,
        "lat": 26.588550501598537
      }
    },
    {
      "title": "福楼旺邸",
      "price": "8285",
      "address": "市南路110号查看详情楼盘图片业主论坛周边商铺",
      "location": {
        "lng": 106.73656364641889,
        "lat": 26.56632705254728
      }
    },
    {
      "title": "贵龙园",
      "price": "5960",
      "address": "黔春路13号查看详情楼盘图片业主论坛周边商铺",
      "location": {
        "lng": 106.68718669677342,
        "lat": 26.589898860685977
      }
    },
    {
      "title": "景藤堡",
      "price": "6359",
      "address": "贵乌中路55号查看详情楼盘图片业主论坛周边商铺",
      "location": {
        "lng": 106.72518211561122,
        "lat": 26.603863588973756
      }
    },
    {
      "title": "城市山水公园",
      "price": "4849",
      "address": "新添寨新创路查看详情楼盘图片业主论坛周边商铺",
      "location": {
        "lng": 106.77582067515857,
        "lat": 26.637159342854318
      }
    },
    {
      "title": "花果园S区",
      "price": "4800",
      "address": "贵阳市南明区小车河路与延安南路交叉口西南100米查看详情楼盘图片业主论坛周边商铺",
      "location": {
        "lng": 106.67777733642411,
        "lat": 26.55972441058408
      }
    },
    {
      "title": "万科玲珑湾",
      "price": "10213",
      "address": "区水东路南明河畔查看详情楼盘图片业主论坛周边商铺",
      "location": {
        "lng": 118.18825211438599,
        "lat": 26.652876976197327
      }
    },
    {
      "title": "世纪城龙慈苑",
      "price": "6589",
      "address": "世纪城龙泉苑街271号查看详情楼盘图片业主论坛周边商铺",
      "location": {
        "lng": 106.63983199991507,
        "lat": 26.61247997947718
      }
    },
    {
      "title": "众拓馨苑",
      "price": "5628",
      "address": "大理石路83号查看详情楼盘图片业主论坛周边商铺",
      "location": {
        "lng": 106.71776390871229,
        "lat": 26.55575597134021
      }
    },
    {
      "title": "美佳假日花园",
      "price": "6194",
      "address": "青年路15中对面查看详情楼盘图片业主论坛周边商铺",
      "location": {
        "lng": 114.33352617020502,
        "lat": 30.543258784688646
      }
    },
    {
      "title": "花溪碧桂园别墅",
      "price": "10801",
      "address": "贵阳花溪孟溪路和贵惠大道交叉口查看详情小区图片业主论坛周边商铺",
      "location": {
        "lng": 106.66527322286508,
        "lat": 26.397916934770045
      }
    },
    {
      "title": "森林故事",
      "price": "6043",
      "address": "见龙洞路31号武警医院对面查看详情楼盘图片业主论坛周边商铺",
      "location": {
        "lng": 106.76145209887012,
        "lat": 26.5707095006516
      }
    },
    {
      "title": "金谷苑",
      "price": "7248",
      "address": "观山湖黔灵山路356号查看详情楼盘图片业主论坛周边商铺",
      "location": {
        "lng": 106.6356866118806,
        "lat": 26.62580450027067
      }
    },
    {
      "title": "宝安松景阁",
      "price": "6471",
      "address": "碧海南路2号查看详情楼盘图片业主论坛周边商铺",
      "location": {
        "lng": 106.62591815403059,
        "lat": 26.62949629319096
      }
    },
    {
      "title": "金宇紫林广场",
      "price": "9716",
      "address": "紫林庵延安西路2号查看详情楼盘图片业主论坛周边商铺",
      "location": ""
    },
    {
      "title": "天玺华庭",
      "price": "6339",
      "address": "半边街84号查看详情楼盘图片业主论坛周边商铺",
      "location": {
        "lng": 103.25384385725428,
        "lat": 29.83234455205799
      }
    },
    {
      "title": "曦阳山庄",
      "price": "5597",
      "address": "黄山冲路18号查看详情楼盘图片业主论坛周边商铺",
      "location": {
        "lng": 106.72908255813427,
        "lat": 26.618554801136902
      }
    },
    {
      "title": "万东花园",
      "price": "6477",
      "address": "大营路70号查看详情楼盘图片业主论坛周边商铺",
      "location": ""
    },
    {
      "title": "乐街小区",
      "price": "5367",
      "address": "长江路259号查看详情楼盘图片业主论坛周边商铺",
      "location": {
        "lng": 125.33447013421815,
        "lat": 43.91175634330941
      }
    },
    {
      "title": "中大国际广场",
      "price": "9395",
      "address": "大营坡鹿冲关路74号查看详情楼盘图片业主论坛周边商铺",
      "location": {
        "lng": 106.72501176851905,
        "lat": 26.61360774263638
      }
    },
    {
      "title": "金翠湾",
      "price": "6117",
      "address": "金阳南路贵阳1中对面查看详情楼盘图片业主论坛周边商铺",
      "location": {
        "lng": 106.63049263014125,
        "lat": 26.631645435000017
      }
    },
    {
      "title": "贵安花园",
      "price": "4775",
      "address": "白云中路254号查看详情楼盘图片业主论坛周边商铺",
      "location": {
        "lng": 106.63698149866838,
        "lat": 26.69167961337642
      }
    },
    {
      "title": "083厂宿舍",
      "price": "4365",
      "address": "乌当振华广场查看详情楼盘图片业主论坛周边商铺",
      "location": {
        "lng": 106.78364287340116,
        "lat": 26.6482679767899
      }
    },
    {
      "title": "米兰春天",
      "price": "5976",
      "address": "白云中环路189号查看详情楼盘图片业主论坛周边商铺",
      "location": {
        "lng": 106.62370500945585,
        "lat": 26.68737775601025
      }
    },
    {
      "title": "林城花都",
      "price": "9701",
      "address": "南厂路170号查看详情楼盘图片业主论坛周边商铺",
      "location": {
        "lng": 106.72743171065842,
        "lat": 26.55489402223339
      }
    },
    {
      "title": "金岸玉都",
      "price": "11481",
      "address": "文化路雪涯路2002-51号查看详情楼盘图片业主论坛周边商铺",
      "location": {
        "lng": 106.71371641357732,
        "lat": 26.578058223221625
      }
    },
    {
      "title": "碧海红湖",
      "price": "6455",
      "address": "云潭南路6号碧海花园查看详情楼盘图片业主论坛周边商铺",
      "location": {
        "lng": 106.61292769881825,
        "lat": 26.611321284484834
      }
    },
    {
      "title": "三桥檀溪谷",
      "price": "5776",
      "address": "贵阳市云岩区三桥黄花街查看详情楼盘图片业主论坛周边商铺",
      "location": {
        "lng": 106.67549450227644,
        "lat": 26.588471826426197
      }
    },
    {
      "title": "中兴世家",
      "price": "5525",
      "address": "浦江路190号查看详情楼盘图片业主论坛周边商铺",
      "location": ""
    },
    {
      "title": "头桥海马冲住宅",
      "price": "5785",
      "address": "贵阳市云岩区头桥海马冲查看详情楼盘图片业主论坛周边商铺",
      "location": {
        "lng": 106.69650883255606,
        "lat": 26.593575617240955
      }
    },
    {
      "title": "苑林星月湾",
      "price": "6666",
      "address": "花溪大道194号查看详情楼盘图片业主论坛周边商铺",
      "location": {
        "lng": 106.70309008821164,
        "lat": 26.5736345389955
      }
    },
    {
      "title": "花果园R区",
      "price": "4796",
      "address": "贵阳市南明区延安南路附近查看详情楼盘图片业主论坛周边商铺",
      "location": {
        "lng": 106.67960205362625,
        "lat": 26.56655384698041
      }
    },
    {
      "title": "丽景阳天",
      "price": "5464",
      "address": "蛮坡春雷路251号查看详情楼盘图片业主论坛周边商铺",
      "location": {
        "lng": 106.72220099644585,
        "lat": 26.61621242790037
      }
    },
    {
      "title": "中海城市花园",
      "price": "5599",
      "address": "小河黔江路7号查看详情楼盘图片业主论坛周边商铺",
      "location": {
        "lng": 106.70098005839995,
        "lat": 26.49694476994974
      }
    },
    {
      "title": "城市印象",
      "price": "6021",
      "address": "沙坡路8号查看详情楼盘图片业主论坛周边商铺",
      "location": {
        "lng": 106.69969808660709,
        "lat": 26.570519665396898
      }
    },
    {
      "title": "栖霞小区",
      "price": "5984",
      "address": "云岩螺蛳山路31号查看详情楼盘图片业主论坛周边商铺",
      "location": {
        "lng": 106.73084848842726,
        "lat": 26.591580585623422
      }
    },
    {
      "title": "碧波苑",
      "price": "5757",
      "address": "观山西路与云潭南路(原金西大道)交汇处查看详情楼盘图片业主论坛周边商铺",
      "location": {
        "lng": 106.61520983935253,
        "lat": 26.639353398146387
      }
    },
    {
      "title": "中兴苑",
      "price": "4758",
      "address": "香江路16号查看详情楼盘图片业主论坛周边商铺",
      "location": {
        "lng": 120.81337427486832,
        "lat": 37.27644574983585
      }
    },
    {
      "title": "香港城",
      "price": "4660",
      "address": "三00医院（电讯大楼旁）查看详情楼盘图片业主论坛周边商铺",
      "location": {
        "lng": 125.38412572327736,
        "lat": 43.86460005289581
      }
    },
    {
      "title": "金阳新世界水临境",
      "price": "9885",
      "address": "金朱路1号查看详情楼盘图片业主论坛周边商铺",
      "location": {
        "lng": 121.67713440083246,
        "lat": 31.106476746587646
      }
    },
    {
      "title": "八鸽岩小区",
      "price": "8749",
      "address": "八鸽岩路167号查看详情楼盘图片业主论坛周边商铺",
      "location": {
        "lng": 106.7071209997286,
        "lat": 26.59899697962913
      }
    },
    {
      "title": "龙砚东山",
      "price": "7650",
      "address": "云岩扶风路中段16号查看详情楼盘图片业主论坛周边商铺",
      "location": {
        "lng": 106.73603554877926,
        "lat": 26.587677248108438
      }
    },
    {
      "title": "碧树云天",
      "price": "5301",
      "address": "蛮坡春雷路37号查看详情楼盘图片业主论坛周边商铺",
      "location": {
        "lng": 106.72073867615337,
        "lat": 26.62027477352324
      }
    },
    {
      "title": "碧玉园",
      "price": "5623",
      "address": "三桥北路150米处查看详情楼盘图片业主论坛周边商铺",
      "location": {
        "lng": 106.6763083814411,
        "lat": 26.589146081943763
      }
    },
    {
      "title": "中央公园小区",
      "price": "9395",
      "address": "云岩宝山南路师大附中旁，九华路内查看详情楼盘图片业主论坛周边商铺",
      "location": {
        "lng": 106.72688557234923,
        "lat": 26.59330109807643
      }
    },
    {
      "title": "大正雨曦城",
      "price": "5581",
      "address": "南明笔山路17号查看详情楼盘图片业主论坛周边商铺",
      "location": {
        "lng": 106.71952279090023,
        "lat": 26.553499440972455
      }
    },
    {
      "title": "西湖路观水巷住宅",
      "price": "11309",
      "address": "贵阳市南明区观水巷查看详情楼盘图片业主论坛周边商铺",
      "location": {
        "lng": 106.72803296090895,
        "lat": 26.577511653930486
      }
    },
    {
      "title": "中铁逸都国际别墅",
      "price": "12028",
      "address": "观山湖区云潭南路查看详情小区图片业主论坛周边商铺",
      "location": {
        "lng": 106.64335824070179,
        "lat": 26.653147880605594
      }
    },
    {
      "title": "兴隆城市花园二期桃源居",
      "price": "5462",
      "address": "漓江路57号查看详情楼盘图片业主论坛周边商铺",
      "location": ""
    },
    {
      "title": "畔山丽苑",
      "price": "5806",
      "address": "沙冲路南路33号查看详情楼盘图片业主论坛周边商铺",
      "location": {
        "lng": 106.70761278696122,
        "lat": 26.55013795058659
      }
    },
    {
      "title": "兴隆誉峰",
      "price": "8806",
      "address": "蟠桃宫路28号查看详情楼盘图片业主论坛周边商铺",
      "location": {
        "lng": 106.73598219302521,
        "lat": 26.581348864396432
      }
    },
    {
      "title": "宏福景苑",
      "price": "5254",
      "address": "海马冲路81号查看详情楼盘图片业主论坛周边商铺",
      "location": {
        "lng": 106.69521403475714,
        "lat": 26.590765617383624
      }
    },
    {
      "title": "康家楠荞",
      "price": "5055",
      "address": "三桥南路9号12#13栋查看详情楼盘图片业主论坛周边商铺",
      "location": {
        "lng": 106.68118449423923,
        "lat": 26.585078345352258
      }
    },
    {
      "title": "中天山水园",
      "price": "5784",
      "address": "康乃馨路12号查看详情楼盘图片业主论坛周边商铺",
      "location": {
        "lng": 106.62689944403473,
        "lat": 26.634837560485746
      }
    },
    {
      "title": "花果园W区",
      "price": "4925",
      "address": "贵阳市南明区花果园W区查看详情楼盘图片业主论坛周边商铺",
      "location": {
        "lng": 106.70170678755728,
        "lat": 26.57594987828108
      }
    },
    {
      "title": "水电九局",
      "price": "5216",
      "address": "三桥水电九局查看详情楼盘图片业主论坛周边商铺",
      "location": {
        "lng": 106.5018401204528,
        "lat": 26.812733386378504
      }
    },
    {
      "title": "八鸽岩天天小区",
      "price": "8719",
      "address": "八鸽岩路十七中附近查看详情楼盘图片业主论坛周边商铺",
      "location": {
        "lng": 106.7080023497218,
        "lat": 26.60081366895725
      }
    },
    {
      "title": "花果园K区",
      "price": "5146",
      "address": "贵阳市南明区黄岭路西200米查看详情楼盘图片业主论坛周边商铺",
      "location": {
        "lng": 106.68620319147767,
        "lat": 26.55974361099126
      }
    },
    {
      "title": "世纪城龙祥苑",
      "price": "7080",
      "address": "金阳南路6号查看详情楼盘图片业主论坛周边商铺",
      "location": {
        "lng": 112.4919255750032,
        "lat": 37.86184849716763
      }
    },
    {
      "title": "中天花园玉兰园",
      "price": "7004",
      "address": "新添大道南段289号查看详情楼盘图片业主论坛周边商铺",
      "location": {
        "lng": 106.7294510189586,
        "lat": 26.60923886144125
      }
    },
    {
      "title": "中天星园",
      "price": "10746",
      "address": "宝山南路24号查看详情楼盘图片业主论坛周边商铺",
      "location": {
        "lng": 106.73256524368003,
        "lat": 26.581539166854686
      }
    },
    {
      "title": "省府大院43号",
      "price": "10918",
      "address": "云岩省府路43号查看详情楼盘图片业主论坛周边商铺",
      "location": {
        "lng": 106.72172777160431,
        "lat": 26.586612607335706
      }
    },
    {
      "title": "涧桥泊林",
      "price": "6116",
      "address": "乌当新添大道温石路85号查看详情楼盘图片业主论坛周边商铺",
      "location": {
        "lng": 106.77956218677592,
        "lat": 26.63580371037968
      }
    },
    {
      "title": "中天花园桃花园",
      "price": "5883",
      "address": "新添大道南段289号查看详情楼盘图片业主论坛周边商铺",
      "location": {
        "lng": 106.7294510189586,
        "lat": 26.60923886144125
      }
    },
    {
      "title": "森林之家",
      "price": "5320",
      "address": "图云关路森林公园查看详情楼盘图片业主论坛周边商铺",
      "location": {
        "lng": 121.55240348063586,
        "lat": 31.32120513770451
      }
    },
    {
      "title": "创世纪新城",
      "price": "7745",
      "address": "陕西路99号查看详情楼盘图片业主论坛周边商铺",
      "location": ""
    },
    {
      "title": "花果园X区",
      "price": "4785",
      "address": "贵阳市南明区花果园X区查看详情楼盘图片业主论坛周边商铺",
      "location": {
        "lng": 106.70170678755728,
        "lat": 26.57594987828108
      }
    },
    {
      "title": "中天汤豪斯",
      "price": "12500",
      "address": "贵阳市南明区红岩路35号查看详情小区图片业主论坛周边商铺",
      "location": {
        "lng": 106.74373510698972,
        "lat": 26.578659106652346
      }
    },
    {
      "title": "天馨家园",
      "price": "5347",
      "address": "新添寨新东路火炬大厦旁查看详情楼盘图片业主论坛周边商铺",
      "location": {
        "lng": 106.77582067515857,
        "lat": 26.637159342854318
      }
    },
    {
      "title": "观水路社区",
      "price": "8643",
      "address": "宝山南路220号查看详情楼盘图片业主论坛周边商铺",
      "location": {
        "lng": 106.73539922890622,
        "lat": 26.57760565693062
      }
    },
    {
      "title": "华颐蓝天",
      "price": "6949",
      "address": "云峰大道112号查看详情楼盘图片业主论坛周边商铺",
      "location": {
        "lng": 113.20521490974681,
        "lat": 27.99290415199293
      }
    },
    {
      "title": "润丰家园",
      "price": "5797",
      "address": "南明大理石路45号查看详情楼盘图片业主论坛周边商铺",
      "location": {
        "lng": 106.71391343578068,
        "lat": 26.558668126756924
      }
    },
    {
      "title": "卧龙山庄",
      "price": "5434",
      "address": "沙冲南路226号查看详情楼盘图片业主论坛周边商铺",
      "location": {
        "lng": 106.70083168078739,
        "lat": 26.53629596657681
      }
    },
    {
      "title": "加州阳光新城",
      "price": "6502",
      "address": "沙冲北路145号查看详情楼盘图片业主论坛周边商铺",
      "location": {
        "lng": 106.71556395851907,
        "lat": 26.562559223462326
      }
    },
    {
      "title": "世纪城龙佑苑",
      "price": "7478",
      "address": "金阳南路6号查看详情楼盘图片业主论坛周边商铺",
      "location": {
        "lng": 112.4919255750032,
        "lat": 37.86184849716763
      }
    },
    {
      "title": "贵阳恒大名都",
      "price": "6427",
      "address": "区三桥改茶大道北段（贵阳和谐阳光医院对面）查看详情楼盘图片业主论坛周边商铺",
      "location": {
        "lng": 106.67549450227644,
        "lat": 26.588471826426197
      }
    },
    {
      "title": "帝豪名都",
      "price": "6167",
      "address": "花果园沙破路1号查看详情楼盘图片业主论坛周边商铺",
      "location": {
        "lng": 106.69901102572275,
        "lat": 26.570726811591488
      }
    },
    {
      "title": "碧海龙珠",
      "price": "5775",
      "address": "诚信南路玫瑰路11号查看详情楼盘图片业主论坛周边商铺",
      "location": {
        "lng": 106.6257183663235,
        "lat": 26.63363758170144
      }
    },
    {
      "title": "盐务街小区",
      "price": "8770",
      "address": "盐务街北京华联旁查看详情楼盘图片业主论坛周边商铺",
      "location": {
        "lng": 116.27142869941719,
        "lat": 39.89953571018789
      }
    },
    {
      "title": "江南苑",
      "price": "5782",
      "address": "黔江路8号查看详情楼盘图片业主论坛周边商铺",
      "location": {
        "lng": 106.71053973580342,
        "lat": 26.531762384252833
      }
    },
    {
      "title": "富水花园",
      "price": "8653",
      "address": "富水中路67号查看详情楼盘图片业主论坛周边商铺",
      "location": {
        "lng": 106.72108700040289,
        "lat": 26.584930979775198
      }
    },
    {
      "title": "花果园J区",
      "price": "5097",
      "address": "贵阳市南明区黄岭路附近查看详情楼盘图片业主论坛周边商铺",
      "location": {
        "lng": 106.68799980249703,
        "lat": 26.55974361099126
      }
    },
    {
      "title": "达兴花园",
      "price": "6313",
      "address": "云岩东山路26号查看详情楼盘图片业主论坛周边商铺",
      "location": {
        "lng": 106.73373347382585,
        "lat": 26.587926951668095
      }
    },
    {
      "title": "城南枫竹苑",
      "price": "6515",
      "address": "青年路146号查看详情楼盘图片业主论坛周边商铺",
      "location": {
        "lng": 117.96468544841422,
        "lat": 34.31727374638393
      }
    },
    {
      "title": "银佳花园",
      "price": "6752",
      "address": "鹿冲关路65号查看详情楼盘图片业主论坛周边商铺",
      "location": {
        "lng": 106.72662579824829,
        "lat": 26.612543757526414
      }
    },
    {
      "title": "碧水云天",
      "price": "6207",
      "address": "金阳大道122号查看详情楼盘图片业主论坛周边商铺",
      "location": {
        "lng": 119.56931564618681,
        "lat": 32.15009468088966
      }
    },
    {
      "title": "小十字小区房",
      "price": "10426",
      "address": "小十字振兴街56号查看详情楼盘图片业主论坛周边商铺",
      "location": {
        "lng": 114.14151083739905,
        "lat": 22.750257532429302
      }
    },
    {
      "title": "同辉花园",
      "price": "5987",
      "address": "南明区体育路（省体校）查看详情楼盘图片业主论坛周边商铺",
      "location": {
        "lng": 106.70756975812732,
        "lat": 26.566479087961962
      }
    },
    {
      "title": "东宝花园",
      "price": "6615",
      "address": "青年路30号查看详情楼盘图片业主论坛周边商铺",
      "location": {
        "lng": 117.96468544841422,
        "lat": 34.31727374638393
      }
    },
    {
      "title": "懿府",
      "price": "16821",
      "address": "区市府路1号查看详情楼盘图片业主论坛周边商铺",
      "location": {
        "lng": 114.73072361593881,
        "lat": 37.66659933363552
      }
    },
    {
      "title": "阳光100",
      "price": "8303",
      "address": "市南路57号查看详情楼盘图片业主论坛周边商铺",
      "location": {
        "lng": 106.732684357194,
        "lat": 26.569154502246697
      }
    },
    {
      "title": "万科公园5号",
      "price": "11635",
      "address": "北京路260号（黔灵公园正对面）查看详情楼盘图片业主论坛周边商铺",
      "location": {
        "lng": 106.70524898584306,
        "lat": 26.59409808214975
      }
    },
    {
      "title": "省医旁小区房",
      "price": "8217",
      "address": "省医旁小区房查看详情楼盘图片业主论坛周边商铺",
      "location": {
        "lng": 106.72863807656807,
        "lat": 26.58371116627239
      }
    },
    {
      "title": "云虹花园",
      "price": "6966",
      "address": "嘉润路8号查看详情楼盘图片业主论坛周边商铺",
      "location": {
        "lng": 106.73138999956477,
        "lat": 26.56559798003948
      }
    },
    {
      "title": "远大生态风景二期栖景湾",
      "price": "7590",
      "address": "长岭南路5号查看详情楼盘图片业主论坛周边商铺",
      "location": {
        "lng": 106.65154903486189,
        "lat": 26.625409785518038
      }
    },
    {
      "title": "绿景家园",
      "price": "6754",
      "address": "东新区路51号查看详情楼盘图片业主论坛周边商铺",
      "location": {
        "lng": 106.73930513469878,
        "lat": 26.574015539271358
      }
    },
    {
      "title": "新联小区",
      "price": "6625",
      "address": "大营坡新联小区查看详情楼盘图片业主论坛周边商铺",
      "location": {
        "lng": 116.9245948606074,
        "lat": 30.62704108296371
      }
    },
    {
      "title": "筑兴苑",
      "price": "6403",
      "address": "百花山路57号查看详情楼盘图片业主论坛周边商铺",
      "location": {
        "lng": 106.73028669444963,
        "lat": 26.604154908819513
      }
    },
    {
      "title": "绿地联盛国际",
      "price": "5701",
      "address": "观山湖诚信路8号查看详情楼盘图片业主论坛周边商铺",
      "location": ""
    },
    {
      "title": "兴居园小区",
      "price": "5180",
      "address": "沙冲南路153号查看详情楼盘图片业主论坛周边商铺",
      "location": {
        "lng": 106.70394917819429,
        "lat": 26.548169513641763
      }
    },
    {
      "title": "宅吉银通山庄",
      "price": "5546",
      "address": "贵州省贵阳市云岩区宅吉小区查看详情楼盘图片业主论坛周边商铺",
      "location": {
        "lng": 106.72029263872204,
        "lat": 26.608599094861344
      }
    },
    {
      "title": "中天花园樱花园",
      "price": "6882",
      "address": "新添大道南段289号查看详情楼盘图片业主论坛周边商铺",
      "location": {
        "lng": 106.7294510189586,
        "lat": 26.60923886144125
      }
    },
    {
      "title": "香榭丽舍",
      "price": "12174",
      "address": "宝山南路50-82号省水电学校查看详情楼盘图片业主论坛周边商铺",
      "location": {
        "lng": 106.73426937414717,
        "lat": 26.579736405763597
      }
    },
    {
      "title": "麒龙快乐家园",
      "price": "5392",
      "address": "望成路16号查看详情楼盘图片业主论坛周边商铺",
      "location": {
        "lng": 114.03763550735782,
        "lat": 22.677364561792643
      }
    },
    {
      "title": "中天花园紫薇园",
      "price": "6234",
      "address": "新添大道南段289号查看详情楼盘图片业主论坛周边商铺",
      "location": {
        "lng": 106.7294510189586,
        "lat": 26.60923886144125
      }
    },
    {
      "title": "黄山冲小区",
      "price": "5412",
      "address": "云岩黄山冲路179号查看详情楼盘图片业主论坛周边商铺",
      "location": {
        "lng": 106.73489143527196,
        "lat": 26.61810665940798
      }
    },
    {
      "title": "东山美庐",
      "price": "10605",
      "address": "扶风路105号查看详情楼盘图片业主论坛周边商铺",
      "location": {
        "lng": 106.73601853538258,
        "lat": 26.587734405472087
      }
    },
    {
      "title": "宅学",
      "price": "12148",
      "address": "金仓路（4路公交车终点站）查看详情楼盘图片业主论坛周边商铺",
      "location": {
        "lng": 120.30714577603187,
        "lat": 28.13485063226649
      }
    },
    {
      "title": "蟠桃宫交警支队宿舍",
      "price": "6666",
      "address": "贵阳市公安局交警支队蟠桃宫检测站查看详情楼盘图片业主论坛周边商铺",
      "location": {
        "lng": 106.7538994542635,
        "lat": 26.629449458978492
      }
    },
    {
      "title": "虹桥新村",
      "price": "6091",
      "address": "蓑草路120号查看详情楼盘图片业主论坛周边商铺",
      "location": {
        "lng": 106.73284181308203,
        "lat": 26.56564828875892
      }
    },
    {
      "title": "中山东路文昌苑",
      "price": "8501",
      "address": "文昌南路亨特国际对面查看详情楼盘图片业主论坛周边商铺",
      "location": {
        "lng": 106.72653352462338,
        "lat": 26.58218096557504
      }
    },
    {
      "title": "花香上海城",
      "price": "6875",
      "address": "浣纱路228号查看详情楼盘图片业主论坛周边商铺",
      "location": {
        "lng": 120.17360966768302,
        "lat": 30.258813343628965
      }
    },
    {
      "title": "冠竹苑",
      "price": "7281",
      "address": "贵乌南路82号查看详情楼盘图片业主论坛周边商铺",
      "location": {
        "lng": 106.72208018224558,
        "lat": 26.599604749495725
      }
    },
    {
      "title": "万象国际",
      "price": "9182",
      "address": "遵义路185号（遵义路与解放路交汇处）查看详情楼盘图片业主论坛周边商铺",
      "location": {
        "lng": 106.71290088242883,
        "lat": 26.567873900940594
      }
    },
    {
      "title": "龙祥大厦",
      "price": "6313",
      "address": "云岩香狮路28号查看详情楼盘图片业主论坛周边商铺",
      "location": {
        "lng": 106.70492751104692,
        "lat": 26.58344238917147
      }
    },
    {
      "title": "南湖丽水铭苑",
      "price": "13684",
      "address": "白云育才南路299号查看详情小区图片业主论坛周边商铺",
      "location": {
        "lng": 106.62679864697012,
        "lat": 26.681104795464034
      }
    },
    {
      "title": "中天花园叠翠谷",
      "price": "9668",
      "address": "新添大道南段289号查看详情楼盘图片业主论坛周边商铺",
      "location": {
        "lng": 106.7294510189586,
        "lat": 26.60923886144125
      }
    },
    {
      "title": "猫猫坡社区",
      "price": "5247",
      "address": "解放路空军招待所旁查看详情楼盘图片业主论坛周边商铺",
      "location": {
        "lng": 116.40874212560388,
        "lat": 39.905426934304394
      }
    },
    {
      "title": "次南门社区",
      "price": "8856",
      "address": "都司路23号查看详情楼盘图片业主论坛周边商铺",
      "location": {
        "lng": 106.71771135963658,
        "lat": 26.5796114607764
      }
    },
    {
      "title": "狮峰路商住楼",
      "price": "6483",
      "address": "狮峰路17号查看详情楼盘图片业主论坛周边商铺",
      "location": {
        "lng": 106.70233523670203,
        "lat": 26.577067878609533
      }
    },
    {
      "title": "商房高第",
      "price": "5485",
      "address": "兴筑路189号查看详情楼盘图片业主论坛周边商铺",
      "location": {
        "lng": 106.62259339591306,
        "lat": 26.629183331921375
      }
    },
    {
      "title": "盛世华庭",
      "price": "6632",
      "address": "解放路27号（嘉润路口附近）查看详情楼盘图片业主论坛周边商铺",
      "location": {
        "lng": 106.71482984349383,
        "lat": 26.565962295732565
      }
    },
    {
      "title": "登高小区",
      "price": "5898",
      "address": "登高路47号查看详情楼盘图片业主论坛周边商铺",
      "location": ""
    },
    {
      "title": "兴合家园",
      "price": "6029",
      "address": "蛮坡路65号查看详情楼盘图片业主论坛周边商铺",
      "location": {
        "lng": 106.71685033200893,
        "lat": 26.617138090341516
      }
    },
    {
      "title": "玉树苑",
      "price": "4644",
      "address": "黄岭路1-59号查看详情楼盘图片业主论坛周边商铺",
      "location": ""
    },
    {
      "title": "花香南城",
      "price": "5754",
      "address": "解放西路南冲北巷1-2#（老车管所旁）查看详情楼盘图片业主论坛周边商铺",
      "location": {
        "lng": 106.70413930904694,
        "lat": 26.56282339566426
      }
    },
    {
      "title": "中天铭廷",
      "price": "7376",
      "address": "金朱东路（中渝·第一城销售中心对面）查看详情楼盘图片业主论坛周边商铺",
      "location": {
        "lng": 112.74878327519183,
        "lat": 27.25274864722177
      }
    },
    {
      "title": "金豪大厦",
      "price": "10860",
      "address": "新华路纪念塔查看详情楼盘图片业主论坛周边商铺",
      "location": {
        "lng": 104.03186009030047,
        "lat": 30.313443421244063
      }
    },
    {
      "title": "银通山庄鸿禧园",
      "price": "6178",
      "address": "宅吉路99号福家山查看详情楼盘图片业主论坛周边商铺",
      "location": {
        "lng": 106.71753753572384,
        "lat": 26.6133037173759
      }
    },
    {
      "title": "金僖家园",
      "price": "5352",
      "address": "观溪北路(少年宫旁)查看详情楼盘图片业主论坛周边商铺",
      "location": {
        "lng": 106.76710303789918,
        "lat": 26.640736410881402
      }
    },
    {
      "title": "中铁阅山湖别墅",
      "price": "14168",
      "address": "观山西路与云潭北路交汇处查看详情小区图片业主论坛周边商铺",
      "location": {
        "lng": 106.61520983935253,
        "lat": 26.639353398146387
      }
    },
    {
      "title": "十里江南",
      "price": "6069",
      "address": "转盘北侧黔江路8号查看详情楼盘图片业主论坛周边商铺",
      "location": {
        "lng": 106.71053973580342,
        "lat": 26.531762384252833
      }
    },
    {
      "title": "乐湾国际",
      "price": "10424",
      "address": "贵阳市乌当区东风镇月亮河畔查看详情楼盘图片业主论坛周边商铺",
      "location": {
        "lng": 106.84049077485189,
        "lat": 26.62777957283597
      }
    },
    {
      "title": "山水黔城半山别墅",
      "price": "12000",
      "address": "四方河路1号查看详情小区图片业主论坛周边商铺",
      "location": {
        "lng": 106.70371576249066,
        "lat": 26.531169257274723
      }
    },
    {
      "title": "智慧龙城玲珑水榭",
      "price": "6946",
      "address": "松山路170号查看详情楼盘图片业主论坛周边商铺",
      "location": ""
    },
    {
      "title": "阳光金地",
      "price": "5591",
      "address": "大营坡汪家湾路口（鹿冲关斜对面）查看详情楼盘图片业主论坛周边商铺",
      "location": {
        "lng": 106.72905345303576,
        "lat": 26.608584478410346
      }
    },
    {
      "title": "天骄豪园",
      "price": "5753",
      "address": "新添大道北段326号查看详情楼盘图片业主论坛周边商铺",
      "location": {
        "lng": 106.7740546999503,
        "lat": 26.636923519888118
      }
    },
    {
      "title": "蟠桃宫小区",
      "price": "6387",
      "address": "南明区蟠桃宫达盛超市对面查看详情楼盘图片业主论坛周边商铺",
      "location": {
        "lng": 106.73650615486628,
        "lat": 26.581624896820976
      }
    },
    {
      "title": "兴关路小区",
      "price": "8122",
      "address": "青云路1号查看详情楼盘图片业主论坛周边商铺",
      "location": {
        "lng": 113.30211871829817,
        "lat": 22.775509421040525
      }
    },
    {
      "title": "茶花新村",
      "price": "5938",
      "address": "朝阳洞路3号查看详情楼盘图片业主论坛周边商铺",
      "location": {
        "lng": 106.70568655943987,
        "lat": 26.558926135400217
      }
    },
    {
      "title": "蟠桃园",
      "price": "6516",
      "address": "蟠桃宫路56号查看详情楼盘图片业主论坛周边商铺",
      "location": {
        "lng": 106.73747521900263,
        "lat": 26.58137653967046
      }
    },
    {
      "title": "中山大厦",
      "price": "7937",
      "address": "富水南路11号查看详情楼盘图片业主论坛周边商铺",
      "location": {
        "lng": 106.72127628325514,
        "lat": 26.58272986757931
      }
    },
    {
      "title": "红边门单位房",
      "price": "8088",
      "address": "陕西路红边门虎门巷23号查看详情楼盘图片业主论坛周边商铺",
      "location": {
        "lng": 106.72220782606867,
        "lat": 26.595913566370314
      }
    },
    {
      "title": "君悦华庭",
      "price": "10587",
      "address": "南明新华路390号查看详情楼盘图片业主论坛周边商铺",
      "location": {
        "lng": 106.72295413828611,
        "lat": 26.57707477537565
      }
    },
    {
      "title": "中天世纪新城11郡",
      "price": "9215",
      "address": "东山路184号查看详情楼盘图片业主论坛周边商铺",
      "location": ""
    },
    {
      "title": "云阳佳苑",
      "price": "5591",
      "address": "贵阳市三桥南路3号查看详情楼盘图片业主论坛周边商铺",
      "location": {
        "lng": 106.68293420832116,
        "lat": 26.583735331927716
      }
    },
    {
      "title": "贵开路小区",
      "price": "6618",
      "address": "云岩区贵开路查看详情楼盘图片业主论坛周边商铺",
      "location": {
        "lng": 106.72631838225043,
        "lat": 26.607921406374444
      }
    },
    {
      "title": "方源广场",
      "price": "8652",
      "address": "解放路188号体育馆对面查看详情楼盘图片业主论坛周边商铺",
      "location": {
        "lng": 113.60532503460858,
        "lat": 24.802609096320037
      }
    },
    {
      "title": "护国路商住楼",
      "price": "8977",
      "address": "贵阳市护国路127号查看详情楼盘图片业主论坛周边商铺",
      "location": {
        "lng": 106.72403767439191,
        "lat": 26.58035755963288
      }
    },
    {
      "title": "逸豪峰",
      "price": "7027",
      "address": "花溪大道北段27号查看详情楼盘图片业主论坛周边商铺",
      "location": {
        "lng": 106.70816273139087,
        "lat": 26.57978648518873
      }
    },
    {
      "title": "美佳大厦",
      "price": "7783",
      "address": "中华北路99号查看详情楼盘图片业主论坛周边商铺",
      "location": ""
    },
    {
      "title": "宅吉开磷花园",
      "price": "6131",
      "address": "宅吉路335号查看详情楼盘图片业主论坛周边商铺",
      "location": {
        "lng": 106.7192038924443,
        "lat": 26.61342968810089
      }
    },
    {
      "title": "兴隆城市花园怡水园",
      "price": "5229",
      "address": "小河漓江路57号查看详情楼盘图片业主论坛周边商铺",
      "location": {
        "lng": 106.70098005839995,
        "lat": 26.49694476994974
      }
    },
    {
      "title": "解放西路小区房",
      "price": "6062",
      "address": "南明解放西路168号查看详情楼盘图片业主论坛周边商铺",
      "location": {
        "lng": 106.70057305054641,
        "lat": 26.565950771774343
      }
    },
    {
      "title": "幸福家园",
      "price": "9291",
      "address": "宝山南路179号查看详情楼盘图片业主论坛周边商铺",
      "location": {
        "lng": 106.73726500024219,
        "lat": 26.56999097996853
      }
    },
    {
      "title": "世纪星苑",
      "price": "5033",
      "address": "二桥路42号(头桥与二桥转弯塘)查看详情楼盘图片业主论坛周边商铺",
      "location": {
        "lng": 106.69257632052633,
        "lat": 26.587055142854624
      }
    },
    {
      "title": "宝安花园",
      "price": "5340",
      "address": "沙冲路宝安花园查看详情楼盘图片业主论坛周边商铺",
      "location": {
        "lng": 114.31886237838225,
        "lat": 30.512850451823432
      }
    },
    {
      "title": "兆基新王府",
      "price": "7447",
      "address": "区花溪大道北段560号查看详情楼盘图片业主论坛周边商铺",
      "location": {
        "lng": 106.69505692741161,
        "lat": 26.561702706624626
      }
    },
    {
      "title": "香樟南国",
      "price": "7225",
      "address": "油榨街花鸟市场对面查看详情楼盘图片业主论坛周边商铺",
      "location": ""
    },
    {
      "title": "扁井社区",
      "price": "7958",
      "address": "云岩区市北路市北巷76号（四小旁边）查看详情楼盘图片业主论坛周边商铺",
      "location": {
        "lng": 106.71461714451186,
        "lat": 26.61074228221087
      }
    },
    {
      "title": "臣功新天地",
      "price": "5324",
      "address": "新添大道北段164号附9号查看详情楼盘图片业主论坛周边商铺",
      "location": {
        "lng": 106.78636839879215,
        "lat": 26.64232172693414
      }
    },
    {
      "title": "华颐春天",
      "price": "6170",
      "address": "云峰大道121号（南湖公园旁,邻白云行政中心）查看详情楼盘图片业主论坛周边商铺",
      "location": {
        "lng": 106.63536376003871,
        "lat": 26.687163289207888
      }
    },
    {
      "title": "黔贵大厦",
      "price": "6090",
      "address": "贵阳市南明区狮峰路6号查看详情楼盘图片业主论坛周边商铺",
      "location": {
        "lng": 106.7043104955347,
        "lat": 26.57823211077546
      }
    },
    {
      "title": "银花家园",
      "price": "6099",
      "address": "解放路829号查看详情楼盘图片业主论坛周边商铺",
      "location": {
        "lng": 104.07766765266243,
        "lat": 30.675315081394594
      }
    },
    {
      "title": "宅吉百草巷",
      "price": "9183",
      "address": "贵阳市云岩区太乙巷(宅吉小学旁)查看详情楼盘图片业主论坛周边商铺",
      "location": {
        "lng": 106.72092937293849,
        "lat": 26.611891654035535
      }
    },
    {
      "title": "中天世纪佳苑",
      "price": "5375",
      "address": "水口寺红岩路3号查看详情楼盘图片业主论坛周边商铺",
      "location": {
        "lng": 106.74605918480897,
        "lat": 26.577473890639496
      }
    },
    {
      "title": "蛮坡世纪园二期",
      "price": "5128",
      "address": "春雷路18号查看详情楼盘图片业主论坛周边商铺",
      "location": ""
    },
    {
      "title": "月亮岩教师公寓",
      "price": "5978",
      "address": "蟠桃宫月亮岩路23号查看详情楼盘图片业主论坛周边商铺",
      "location": {
        "lng": 106.73550977685257,
        "lat": 26.58272275614151
      }
    },
    {
      "title": "花果园Q区",
      "price": "4823",
      "address": "贵阳市南明区延安南路附近查看详情楼盘图片业主论坛周边商铺",
      "location": {
        "lng": 106.67960205362625,
        "lat": 26.56655384698041
      }
    },
    {
      "title": "橙堡",
      "price": "4638",
      "address": "云岩区白云大道查看详情楼盘图片业主论坛周边商铺",
      "location": {
        "lng": 106.66350314779046,
        "lat": 26.62383167273136
      }
    },
    {
      "title": "三桥公路公司宿舍",
      "price": "5010",
      "address": "三桥公路公司宿舍查看详情楼盘图片业主论坛周边商铺",
      "location": {
        "lng": 112.62783804074704,
        "lat": 37.78477029119231
      }
    },
    {
      "title": "龙潭春天",
      "price": "7302",
      "address": "金阳兴筑东路南侧贵阳一中斜对面查看详情楼盘图片业主论坛周边商铺",
      "location": {
        "lng": 103.20105938361293,
        "lat": 27.706169003933557
      }
    },
    {
      "title": "名仕花园",
      "price": "8570",
      "address": "护国路33号查看详情楼盘图片业主论坛周边商铺",
      "location": ""
    },
    {
      "title": "凤来仪小区",
      "price": "4899",
      "address": "新添寨观溪北路16号查看详情楼盘图片业主论坛周边商铺",
      "location": {
        "lng": 106.76772023936063,
        "lat": 26.640546090809988
      }
    },
    {
      "title": "兴隆城市花园彩云谷",
      "price": "5459",
      "address": "漓江路107号查看详情楼盘图片业主论坛周边商铺",
      "location": ""
    },
    {
      "title": "东山怡景苑",
      "price": "5181",
      "address": "贵阳市东山路附近仙鹤路查看详情楼盘图片业主论坛周边商铺",
      "location": {
        "lng": 106.74227709403684,
        "lat": 26.59645543362402
      }
    },
    {
      "title": "海泓兰馨苑",
      "price": "5762",
      "address": "蛮坡宅吉路88号查看详情楼盘图片业主论坛周边商铺",
      "location": {
        "lng": 106.71503844979591,
        "lat": 26.61865896441068
      }
    },
    {
      "title": "都市花园",
      "price": "10563",
      "address": "都司路126号查看详情楼盘图片业主论坛周边商铺",
      "location": {
        "lng": 106.7135945728078,
        "lat": 26.579390053168183
      }
    },
    {
      "title": "开磷宅吉花园",
      "price": "6294",
      "address": "宅吉路335号查看详情楼盘图片业主论坛周边商铺",
      "location": {
        "lng": 106.7192038924443,
        "lat": 26.61342968810089
      }
    },
    {
      "title": "新都花园",
      "price": "4969",
      "address": "新添大道127号查看详情楼盘图片业主论坛周边商铺",
      "location": {
        "lng": 106.76702782983696,
        "lat": 26.633657162749323
      }
    },
    {
      "title": "万科大都会",
      "price": "7640",
      "address": "长江路与珠江路交汇处查看详情楼盘图片业主论坛周边商铺",
      "location": {
        "lng": 125.34095338324758,
        "lat": 43.91168701382653
      }
    },
    {
      "title": "新兴花园",
      "price": "4813",
      "address": "新添寨新竹路济康医院后面查看详情楼盘图片业主论坛周边商铺",
      "location": {
        "lng": 106.77582067515857,
        "lat": 26.637159342854318
      }
    },
    {
      "title": "大兴星城哥伦布",
      "price": "5455",
      "address": "大兴星城哥伦布35号查看详情楼盘图片业主论坛周边商铺",
      "location": {
        "lng": 118.79083142423391,
        "lat": 32.043582029660286
      }
    },
    {
      "title": "尚武小区",
      "price": "8919",
      "address": "上护国路名士花园对面查看详情楼盘图片业主论坛周边商铺",
      "location": {
        "lng": 106.723471595497,
        "lat": 26.582666998667115
      }
    },
    {
      "title": "榕筑花园",
      "price": "4666",
      "address": "小河区锦江路中段查看详情楼盘图片业主论坛周边商铺",
      "location": {
        "lng": 106.70098005839995,
        "lat": 26.49694476994974
      }
    },
    {
      "title": "祥源大厦",
      "price": "9604",
      "address": "云岩区飞山街口（环西小学旁）查看详情楼盘图片业主论坛周边商铺",
      "location": {
        "lng": 106.71220274723417,
        "lat": 26.58561123563492
      }
    },
    {
      "title": "博泰华庭",
      "price": "6705",
      "address": "贵乌中路76号查看详情楼盘图片业主论坛周边商铺",
      "location": {
        "lng": 106.72358447926226,
        "lat": 26.60176056996236
      }
    },
    {
      "title": "中天花园竹园",
      "price": "6520",
      "address": "新添大道南段路289号查看详情楼盘图片业主论坛周边商铺",
      "location": {
        "lng": 106.7294510189586,
        "lat": 26.60923886144125
      }
    },
    {
      "title": "中天未来方舟别墅",
      "price": "18129",
      "address": "云岩区北京东路查看详情小区图片业主论坛周边商铺",
      "location": {
        "lng": 106.7575818061749,
        "lat": 26.60266791887955
      }
    },
    {
      "title": "汤泉小区",
      "price": "5261",
      "address": "龙广路10号查看详情楼盘图片业主论坛周边商铺",
      "location": {
        "lng": 110.5274290667728,
        "lat": 21.360472937213867
      }
    },
    {
      "title": "绿苑小区三期",
      "price": "5256",
      "address": "区沙冲南路87号（沙冲南路与新寨路之间）查看详情楼盘图片业主论坛周边商铺",
      "location": {
        "lng": 106.70937010340268,
        "lat": 26.552771326926223
      }
    },
    {
      "title": "武岳新村",
      "price": "5905",
      "address": "南厂路241号查看详情楼盘图片业主论坛周边商铺",
      "location": {
        "lng": 106.724842822027,
        "lat": 26.557670143016313
      }
    },
    {
      "title": "南浮宫御园",
      "price": "10036",
      "address": "金阳大道北段，白云南湖新区查看详情小区图片业主论坛周边商铺",
      "location": {
        "lng": 106.624627750672,
        "lat": 26.682596364731197
      }
    },
    {
      "title": "威清路住宅",
      "price": "8029",
      "address": "贵阳市云岩区威清路查看详情楼盘图片业主论坛周边商铺",
      "location": {
        "lng": 106.70673598688546,
        "lat": 26.591593985915214
      }
    },
    {
      "title": "纪念塔大剧院民宅",
      "price": "8042",
      "address": "南明区纪念塔大剧院背后查看详情楼盘图片业主论坛周边商铺",
      "location": {
        "lng": 106.72417349818495,
        "lat": 26.54141327227778
      }
    },
    {
      "title": "日报社照壁巷宿舍",
      "price": "6146",
      "address": "云岩区贵州日报社旁照壁巷查看详情楼盘图片业主论坛周边商铺",
      "location": {
        "lng": 106.72486034257767,
        "lat": 26.600912680693845
      }
    },
    {
      "title": "恒峰步行街小区",
      "price": "9409",
      "address": "中山西路与公园西路交叉口东北侧(原市委办公用地)查看详情楼盘图片业主论坛周边商铺",
      "location": {
        "lng": 106.71462476932903,
        "lat": 26.5835019125712
      }
    },
    {
      "title": "瑞源星城",
      "price": "7359",
      "address": "瑞金北路(市北供电局旁)查看详情楼盘图片业主论坛周边商铺",
      "location": {
        "lng": 120.37849501735963,
        "lat": 36.10005750700942
      }
    },
    {
      "title": "华联小区",
      "price": "6362",
      "address": "宅吉路106号查看详情楼盘图片业主论坛周边商铺",
      "location": {
        "lng": 106.71991498479763,
        "lat": 26.61338816210915
      }
    },
    {
      "title": "师大教师宿舍",
      "price": "8334",
      "address": "贵阳市云岩区师大校区查看详情楼盘图片业主论坛周边商铺",
      "location": {
        "lng": 106.72688557234923,
        "lat": 26.59330109807643
      }
    },
    {
      "title": "钻石广场",
      "price": "9133",
      "address": "中华南路122号查看详情楼盘图片业主论坛周边商铺",
      "location": ""
    },
    {
      "title": "悦景新城",
      "price": "5040",
      "address": "北衙路158号查看详情楼盘图片业主论坛周边商铺",
      "location": {
        "lng": 106.77234225656397,
        "lat": 26.63997004380106
      }
    },
    {
      "title": "阳光香榭",
      "price": "6851",
      "address": "玫瑰路30号查看详情楼盘图片业主论坛周边商铺",
      "location": ""
    },
    {
      "title": "中天长岭阳光",
      "price": "7249",
      "address": "贵阳市观山湖区长岭北路查看详情楼盘图片业主论坛周边商铺",
      "location": {
        "lng": 106.64335824070179,
        "lat": 26.653147880605594
      }
    },
    {
      "title": "华阳小区",
      "price": "5259",
      "address": "浦江路292号查看详情楼盘图片业主论坛周边商铺",
      "location": ""
    },
    {
      "title": "曦城上品",
      "price": "7827",
      "address": "（花果园）狮峰路6号查看详情楼盘图片业主论坛周边商铺",
      "location": {
        "lng": 106.7043104955347,
        "lat": 26.57823211077546
      }
    },
    {
      "title": "城市方舟",
      "price": "9933",
      "address": "遵义路25号（遵义路与青云路交叉口）查看详情楼盘图片业主论坛周边商铺",
      "location": {
        "lng": 106.71666329222553,
        "lat": 26.572420619038397
      }
    },
    {
      "title": "开磷百花小区",
      "price": "6095",
      "address": "百花山路22号查看详情楼盘图片业主论坛周边商铺",
      "location": {
        "lng": 106.73045737788631,
        "lat": 26.603892812271976
      }
    },
    {
      "title": "华田清水湾",
      "price": "4840",
      "address": "小河区香江路14号查看详情楼盘图片业主论坛周边商铺",
      "location": {
        "lng": 106.70098005839995,
        "lat": 26.49694476994974
      }
    },
    {
      "title": "华烽厂宿舍",
      "price": "6059",
      "address": "小河长江路8号查看详情楼盘图片业主论坛周边商铺",
      "location": {
        "lng": 106.70098005839995,
        "lat": 26.49694476994974
      }
    },
    {
      "title": "华谊苑",
      "price": "7937",
      "address": "和平路虎门巷9号查看详情楼盘图片业主论坛周边商铺",
      "location": {
        "lng": 106.72133096311151,
        "lat": 26.595077807113025
      }
    },
    {
      "title": "宏业湘雅园",
      "price": "7028",
      "address": "贵阳市南明区湘雅村查看详情楼盘图片业主论坛周边商铺",
      "location": {
        "lng": 106.69873123499717,
        "lat": 26.569369879133234
      }
    },
    {
      "title": "楠竹花园",
      "price": "4921",
      "address": "黄河南路86号查看详情楼盘图片业主论坛周边商铺",
      "location": ""
    },
    {
      "title": "奥运花园",
      "price": "5252",
      "address": "浦江路北段271号查看详情楼盘图片业主论坛周边商铺",
      "location": ""
    },
    {
      "title": "中天花园茶花园",
      "price": "6148",
      "address": "新添大道南段289号查看详情楼盘图片业主论坛周边商铺",
      "location": {
        "lng": 106.7294510189586,
        "lat": 26.60923886144125
      }
    },
    {
      "title": "三江小区",
      "price": "4677",
      "address": "小河清水江路71号查看详情楼盘图片业主论坛周边商铺",
      "location": {
        "lng": 106.70098005839995,
        "lat": 26.49694476994974
      }
    },
    {
      "title": "智慧龙城二期",
      "price": "6486",
      "address": "松山路4号查看详情楼盘图片业主论坛周边商铺",
      "location": ""
    },
    {
      "title": "金蝶苑",
      "price": "6048",
      "address": "观山湖南路178号查看详情楼盘图片业主论坛周边商铺",
      "location": {
        "lng": 114.42294977392109,
        "lat": 23.127306319572067
      }
    },
    {
      "title": "智慧龙城香樟苑",
      "price": "6695",
      "address": "松山路151号查看详情楼盘图片业主论坛周边商铺",
      "location": ""
    },
    {
      "title": "千千代公寓",
      "price": "7665",
      "address": "都司路112号查看详情楼盘图片业主论坛周边商铺",
      "location": {
        "lng": 106.71471945971281,
        "lat": 26.57911148558984
      }
    },
    {
      "title": "金田家园",
      "price": "4910",
      "address": "新天寨火炬大道旁查看详情楼盘图片业主论坛周边商铺",
      "location": {
        "lng": 113.45079918917251,
        "lat": 22.568940626843574
      }
    },
    {
      "title": "亨特上城",
      "price": "8789",
      "address": "黔灵东路1号石油大厦查看详情楼盘图片业主论坛周边商铺",
      "location": {
        "lng": 106.7229593861869,
        "lat": 26.592942315789518
      }
    },
    {
      "title": "三民东路住宅",
      "price": "9539",
      "address": "贵阳市云岩区三民东路查看详情楼盘图片业主论坛周边商铺",
      "location": {
        "lng": 106.72320258803076,
        "lat": 26.590399444003385
      }
    },
    {
      "title": "陕西路120大院",
      "price": "8411",
      "address": "贵州省贵阳市云岩区陕西路120号查看详情楼盘图片业主论坛周边商铺",
      "location": {
        "lng": 106.72027694173156,
        "lat": 26.59481502639594
      }
    },
    {
      "title": "教师新村",
      "price": "6092",
      "address": "蟠桃宫月亮岩查看详情楼盘图片业主论坛周边商铺",
      "location": {
        "lng": 106.73650292096643,
        "lat": 26.583731359176237
      }
    },
    {
      "title": "扶风花园",
      "price": "5887",
      "address": "扶风东路1号查看详情楼盘图片业主论坛周边商铺",
      "location": {
        "lng": 106.73680575592324,
        "lat": 26.589489748507265
      }
    },
    {
      "title": "凤凰翠堤",
      "price": "5796",
      "address": "太慈桥凤凰路39号查看详情楼盘图片业主论坛周边商铺",
      "location": {
        "lng": 106.69691132732272,
        "lat": 26.557968046651826
      }
    },
    {
      "title": "甲秀楼社区",
      "price": "11113",
      "address": "贵阳市南明区西湖路查看详情楼盘图片业主论坛周边商铺",
      "location": {
        "lng": 106.72745101704044,
        "lat": 26.577439774295843
      }
    },
    {
      "title": "湘雅村",
      "price": "6027",
      "address": "花溪大道北段243号（北京华联斜对面）查看详情楼盘图片业主论坛周边商铺",
      "location": {
        "lng": 116.27142869941719,
        "lat": 39.89953571018789
      }
    },
    {
      "title": "省政府宿舍",
      "price": "10983",
      "address": "贵阳市云岩区交际处省政府宿舍查看详情楼盘图片业主论坛周边商铺",
      "location": {
        "lng": 106.71791401556294,
        "lat": 26.60352465030005
      }
    },
    {
      "title": "财富公馆",
      "price": "6986",
      "address": "延安路市西路口查看详情楼盘图片业主论坛周边商铺",
      "location": {
        "lng": 112.56980603527398,
        "lat": 26.903906121680528
      }
    },
    {
      "title": "景天城",
      "price": "9114",
      "address": "延安中路8号查看详情楼盘图片业主论坛周边商铺",
      "location": {
        "lng": 113.1232240560961,
        "lat": 36.18151288685908
      }
    },
    {
      "title": "温泉花园",
      "price": "5337",
      "address": "温泉路20号查看详情楼盘图片业主论坛周边商铺",
      "location": ""
    },
    {
      "title": "文昌北路小区",
      "price": "8298",
      "address": "文昌北路168号查看详情楼盘图片业主论坛周边商铺",
      "location": ""
    },
    {
      "title": "燕山雅筑",
      "price": "5045",
      "address": "区新东路新天三小旁查看详情楼盘图片业主论坛周边商铺",
      "location": {
        "lng": 106.78820685108553,
        "lat": 26.639133255424067
      }
    },
    {
      "title": "水锦花都二期",
      "price": "5089",
      "address": "乌当中学对面查看详情楼盘图片业主论坛周边商铺",
      "location": {
        "lng": 106.7651272266086,
        "lat": 26.63800789385383
      }
    },
    {
      "title": "利鑫苑",
      "price": "5548",
      "address": "贵阳市南明区大庆路26号查看详情楼盘图片业主论坛周边商铺",
      "location": {
        "lng": 106.71761394918371,
        "lat": 26.556296547668982
      }
    },